[
    {
        "skytterlag_id": "10709",
        "skytterlag_navn": "Aalesund Skyttarlag",
        "range_types": [
            "SKYTEANLEGG-UTE",
            "SKYTEANLEGG-INNE"
        ],
        "lat": 62.479697317004806,
        "long": 6.382847188162103
    },
    {
        "skytterlag_id": "10148",
        "skytterlag_navn": "Aas Skytterlag",
        "range_types": [
            "SKYTEANLEGG-UTE",
            "SKYTEANLEGG-INNE"
        ],
        "lat": 59.60873191984295,
        "long": 10.872447208445571
    },
    {
        "skytterlag_id": "10334",
        "skytterlag_navn": "Aasen Skytterlag",
        "range_types": [
            "SKYTEANLEGG-UTE",
            "SKYTEANLEGG-INNE"
        ],
        "lat": 63.603396337699614,
        "long": 11.079816320497233
    },
    {
        "skytterlag_id": "10491",
        "skytterlag_navn": "Akademisk Skytterlag",
        "range_types": [
            "SKYTEANLEGG-UTE"
        ],
        "lat": 59.96215959760158,
        "long": 10.579114605496768
    },
    {
        "skytterlag_id": "10498",
        "skytterlag_navn": "Aldersund Skytterlag",
        "range_types": [
            "SKYTEANLEGG-UTE"
        ],
        "lat": null,
        "long": null
    },
    {
        "skytterlag_id": "10363",
        "skytterlag_navn": "Almenning Skyttarlag",
        "range_types": [
            "SKYTEANLEGG-INNE",
            "SKYTEANLEGG-UTE"
        ],
        "lat": 61.91778600360212,
        "long": 5.171867900235474
    },
    {
        "skytterlag_id": "10846",
        "skytterlag_navn": "Alta Skytterlag",
        "range_types": [
            "SKYTEANLEGG-UTE",
            "SKYTEANLEGG-INNE",
            "FELTANLEGG"
        ],
        "lat": 69.92637712601389,
        "long": 23.097306191339577
    },
    {
        "skytterlag_id": "10508",
        "skytterlag_navn": "Alteren Skytterlag",
        "range_types": [
            "SKYTEANLEGG-UTE"
        ],
        "lat": 66.33081677514097,
        "long": 14.002329192236047
    },
    {
        "skytterlag_id": "10423",
        "skytterlag_navn": "Alvdal Skytterlag",
        "range_types": [
            "SKYTEANLEGG-INNE",
            "FELTANLEGG",
            "SKYTEANLEGG-UTE"
        ],
        "lat": 62.07907150893572,
        "long": 10.654981712164144
    },
    {
        "skytterlag_id": "10856",
        "skytterlag_navn": "Andebu Skytterlag",
        "range_types": [
            "SKYTEANLEGG-UTE",
            "SKYTEANLEGG-INNE"
        ],
        "lat": 59.2968169541658,
        "long": 10.15645063578821
    },
    {
        "skytterlag_id": "10840",
        "skytterlag_navn": "Andenes Skytterlag",
        "range_types": [
            "SKYTEANLEGG-UTE",
            "SKYTEANLEGG-INNE"
        ],
        "lat": 69.28277084835997,
        "long": 16.040848947970446
    },
    {
        "skytterlag_id": "10888",
        "skytterlag_navn": "Arabygdi Skyttarlag",
        "range_types": [
            "SKYTEANLEGG-UTE"
        ],
        "lat": 59.7811072813673,
        "long": 7.731719783620053
    },
    {
        "skytterlag_id": "10919",
        "skytterlag_navn": "Aremark Skytterlag",
        "range_types": [
            "SKYTEANLEGG-UTE"
        ],
        "lat": 59.17978757433802,
        "long": 11.659528586827626
    },
    {
        "skytterlag_id": "10622",
        "skytterlag_navn": "Arnafjord Skyttarlag",
        "range_types": [
            "SKYTEANLEGG-UTE"
        ],
        "lat": 61.009925428937144,
        "long": 6.345044801378005
    },
    {
        "skytterlag_id": "10129",
        "skytterlag_navn": "Asker Skytterlag",
        "range_types": [
            "SKYTEANLEGG-UTE",
            "SKYTEANLEGG-INNE"
        ],
        "lat": 59.84502645952171,
        "long": 10.37930426904936
    },
    {
        "skytterlag_id": "10135",
        "skytterlag_navn": "Askim Skytterlag",
        "range_types": [
            "SKYTEANLEGG-INNE",
            "SKYTEANLEGG-UTE"
        ],
        "lat": 59.54519671855848,
        "long": 11.159915155999812
    },
    {
        "skytterlag_id": "10656",
        "skytterlag_navn": "Askvoll og Holmedal Skytterlag",
        "range_types": [
            "SKYTEANLEGG-INNE",
            "SKYTEANLEGG-UTE"
        ],
        "lat": 61.35957130922084,
        "long": 5.136273030695699
    },
    {
        "skytterlag_id": "10394",
        "skytterlag_navn": "Aspøy og Straumsnes Skytterlag",
        "range_types": [
            "SKYTEANLEGG-UTE",
            "SKYTEANLEGG-INNE"
        ],
        "lat": 63.03541268078065,
        "long": 8.042155295109733
    },
    {
        "skytterlag_id": "10889",
        "skytterlag_navn": "Atna Skytterlag",
        "range_types": [
            "SKYTEANLEGG-UTE"
        ],
        "lat": null,
        "long": null
    },
    {
        "skytterlag_id": "10191",
        "skytterlag_navn": "Atrå Skytterlag",
        "range_types": [
            "SKYTEANLEGG-UTE",
            "SKYTEANLEGG-INNE"
        ],
        "lat": 59.99334584365418,
        "long": 8.734270526998566
    },
    {
        "skytterlag_id": "10553",
        "skytterlag_navn": "Aureosen Skytterlag",
        "range_types": [
            "SKYTEANLEGG-UTE"
        ],
        "lat": 62.80235758529562,
        "long": 7.01136206142905
    },
    {
        "skytterlag_id": "10602",
        "skytterlag_navn": "Aurland Skyttarlag",
        "range_types": [
            "SKYTEANLEGG-UTE",
            "SKYTEANLEGG-INNE"
        ],
        "lat": 60.87898550083616,
        "long": 7.245909244855144
    },
    {
        "skytterlag_id": "10192",
        "skytterlag_navn": "Austbygde Skytterlag",
        "range_types": [
            "SKYTEANLEGG-UTE"
        ],
        "lat": 60.0524995669371,
        "long": 8.811234722018206
    },
    {
        "skytterlag_id": "10801",
        "skytterlag_navn": "Austerbygda Skytterlag",
        "range_types": [
            "SKYTEANLEGG-INNE"
        ],
        "lat": 65.82872320489508,
        "long": 13.289966789744174
    },
    {
        "skytterlag_id": "10285",
        "skytterlag_navn": "Austevoll Skyttarlag",
        "range_types": [
            "SKYTEANLEGG-UTE"
        ],
        "lat": 60.038028916064675,
        "long": 5.247928127646844
    },
    {
        "skytterlag_id": "10886",
        "skytterlag_navn": "Austheii Skyttarlag",
        "range_types": [
            "SKYTEANLEGG-UTE"
        ],
        "lat": 59.38936031509073,
        "long": 8.16574872980702
    },
    {
        "skytterlag_id": "10637",
        "skytterlag_navn": "Austmarka Skytterlag",
        "range_types": [
            "SKYTEANLEGG-UTE"
        ],
        "lat": 60.09335853436209,
        "long": 12.30128236868386
    },
    {
        "skytterlag_id": "10623",
        "skytterlag_navn": "Balestrand Skyttarlag",
        "range_types": [
            "SKYTEANLEGG-INNE",
            "SKYTEANLEGG-UTE"
        ],
        "lat": 61.20611420717301,
        "long": 6.525169066938956
    },
    {
        "skytterlag_id": "10458",
        "skytterlag_navn": "Ballangen Skytterlag",
        "range_types": [
            "SKYTEANLEGG-UTE",
            "SKYTEANLEGG-INNE"
        ],
        "lat": 68.31945429170999,
        "long": 16.783715387764232
    },
    {
        "skytterlag_id": "10725",
        "skytterlag_navn": "Balsfjord Skytterlag",
        "range_types": [
            "SKYTEANLEGG-INNE",
            "FELTANLEGG",
            "SKYTEANLEGG-UTE"
        ],
        "lat": 69.2125319042398,
        "long": 19.489143733356084
    },
    {
        "skytterlag_id": "10176",
        "skytterlag_navn": "Bamble Skytterlag",
        "range_types": [
            "SKYTEANLEGG-INNE",
            "SKYTEANLEGG-UTE"
        ],
        "lat": 58.974098183969765,
        "long": 9.572961580356278
    },
    {
        "skytterlag_id": "10339",
        "skytterlag_navn": "Bangsund Skytterlag",
        "range_types": [
            "SKYTEANLEGG-UTE"
        ],
        "lat": 64.39560658086877,
        "long": 11.409914273312598
    },
    {
        "skytterlag_id": "10754",
        "skytterlag_navn": "Bardu Skytterlag",
        "range_types": [
            "SKYTEANLEGG-UTE",
            "SKYTEANLEGG-INNE"
        ],
        "lat": 68.84561645022535,
        "long": 18.345401708149055
    },
    {
        "skytterlag_id": "10392",
        "skytterlag_navn": "Barmøy Skyttarlag",
        "range_types": [
            "SKYTEANLEGG-UTE"
        ],
        "lat": 62.00838394604967,
        "long": 5.273358577054834
    },
    {
        "skytterlag_id": "10790",
        "skytterlag_navn": "Begna Skyttarlag",
        "range_types": [
            "SKYTEANLEGG-UTE"
        ],
        "lat": 60.75836324581133,
        "long": 9.668113663160266
    },
    {
        "skytterlag_id": "10791",
        "skytterlag_navn": "Begnadalen Skyttarlag",
        "range_types": [
            "SKYTEANLEGG-UTE",
            "SKYTEANLEGG-INNE"
        ],
        "lat": null,
        "long": null
    },
    {
        "skytterlag_id": "10583",
        "skytterlag_navn": "Beiarn Skytterlag",
        "range_types": [
            "SKYTEANLEGG-UTE"
        ],
        "lat": 66.91100661811879,
        "long": 14.782800895594427
    },
    {
        "skytterlag_id": "10792",
        "skytterlag_navn": "Beito Skyttarlag",
        "range_types": [
            "SKYTEANLEGG-INNE",
            "SKYTEANLEGG-UTE"
        ],
        "lat": 61.234963019601736,
        "long": 8.88253087863822
    },
    {
        "skytterlag_id": "10308",
        "skytterlag_navn": "Beitstad Skytterlag",
        "range_types": [
            "SKYTEANLEGG-UTE"
        ],
        "lat": 64.11956276205716,
        "long": 11.437776374761437
    },
    {
        "skytterlag_id": "10306",
        "skytterlag_navn": "Bergen Skytterlag",
        "range_types": [
            "SKYTEANLEGG-UTE",
            "SKYTEANLEGG-INNE",
            "FELTANLEGG",
            "SKYTEANLEGG-INNE-ANDR"
        ],
        "lat": 60.36841297896517,
        "long": 5.3080931404340035
    },
    {
        "skytterlag_id": "10393",
        "skytterlag_navn": "Berle Skytterlag",
        "range_types": [
            "SKYTEANLEGG-UTE"
        ],
        "lat": 61.83399648560964,
        "long": 5.0936913867199305
    },
    {
        "skytterlag_id": "10466",
        "skytterlag_navn": "Bestebostad Skytterlag",
        "range_types": [
            "SKYTEANLEGG-UTE"
        ],
        "lat": 68.9034137600469,
        "long": 16.61555717246727
    },
    {
        "skytterlag_id": "10509",
        "skytterlag_navn": "Bingen Skytterlag",
        "range_types": [
            "SKYTEANLEGG-UTE"
        ],
        "lat": 59.86838011499083,
        "long": 9.783120837956368
    },
    {
        "skytterlag_id": "10471",
        "skytterlag_navn": "Biri Skytterlag",
        "range_types": [
            "SKYTEANLEGG-UTE"
        ],
        "lat": 60.95072625133132,
        "long": 10.534311714478097
    },
    {
        "skytterlag_id": "10059",
        "skytterlag_navn": "Birkenes Skytterlag",
        "range_types": [
            "SKYTEANLEGG-UTE"
        ],
        "lat": 58.34099538987248,
        "long": 8.193357064663564
    },
    {
        "skytterlag_id": "10821",
        "skytterlag_navn": "Bjelland Skytterlag",
        "range_types": [
            "SKYTEANLEGG-INNE",
            "SKYTEANLEGG-UTE"
        ],
        "lat": null,
        "long": null
    },
    {
        "skytterlag_id": "10522",
        "skytterlag_navn": "Bjerkreim Skytterlag",
        "range_types": [
            "SKYTEANLEGG-UTE",
            "SKYTEANLEGG-INNE"
        ],
        "lat": 58.64318379940922,
        "long": 6.1406916703326075
    },
    {
        "skytterlag_id": "10455",
        "skytterlag_navn": "Bjerkvik Skytterlag",
        "range_types": [
            "SKYTEANLEGG-INNE",
            "SKYTEANLEGG-UTE"
        ],
        "lat": 68.5526396825669,
        "long": 17.55420472079193
    },
    {
        "skytterlag_id": "10472",
        "skytterlag_navn": "Bjoneroa Skytterlag",
        "range_types": [
            "SKYTEANLEGG-UTE",
            "SKYTEANLEGG-INNE"
        ],
        "lat": 60.518333320083784,
        "long": 10.263856463603052
    },
    {
        "skytterlag_id": "10624",
        "skytterlag_navn": "Bjordal/Søreide Skyttarlag",
        "range_types": [
            "SKYTEANLEGG-UTE"
        ],
        "lat": 61.053879850717365,
        "long": 5.832176949092267
    },
    {
        "skytterlag_id": "10149",
        "skytterlag_navn": "Bjugn Skytterlag",
        "range_types": [
            "SKYTEANLEGG-INNE",
            "SKYTEANLEGG-UTE"
        ],
        "lat": 63.80228782104326,
        "long": 9.673990822125935
    },
    {
        "skytterlag_id": "10499",
        "skytterlag_navn": "Bjøllånes Skytterlag",
        "range_types": [
            "SKYTEANLEGG-UTE"
        ],
        "lat": 66.50022054385737,
        "long": 14.980357708492997
    },
    {
        "skytterlag_id": "10712",
        "skytterlag_navn": "Bjørge Skyttarlag",
        "range_types": [
            "SKYTEANLEGG-UTE",
            "SKYTEANLEGG-INNE"
        ],
        "lat": 62.004366330076095,
        "long": 6.038619296731255
    },
    {
        "skytterlag_id": "10755",
        "skytterlag_navn": "Bjørkebakk Skytterlag",
        "range_types": [
            "SKYTEANLEGG-UTE"
        ],
        "lat": 69.0270094778663,
        "long": 17.739782486999147
    },
    {
        "skytterlag_id": "10748",
        "skytterlag_navn": "Bjørnen og Vestre Målselv Skytterlag",
        "range_types": [
            "SKYTEANLEGG-UTE",
            "SKYTEANLEGG-ANDR"
        ],
        "lat": 69.15939149760166,
        "long": 18.523024317644552
    },
    {
        "skytterlag_id": "10890",
        "skytterlag_navn": "Bjørnen Skytterlag",
        "range_types": [
            "SKYTEANLEGG-UTE"
        ],
        "lat": 61.56542544643243,
        "long": 11.108774662793858
    },
    {
        "skytterlag_id": "10077",
        "skytterlag_navn": "Blaker Skytterlag",
        "range_types": [
            "SKYTEANLEGG-INNE",
            "SKYTEANLEGG-UTE",
            "FELTANLEGG"
        ],
        "lat": 60.00070382244629,
        "long": 11.341696778514644
    },
    {
        "skytterlag_id": "10447",
        "skytterlag_navn": "Blinken Skytterlag",
        "range_types": [
            "SKYTEANLEGG-UTE"
        ],
        "lat": 59.517886724982006,
        "long": 9.891317628528181
    },
    {
        "skytterlag_id": "10818",
        "skytterlag_navn": "Blomsøy Skytterlag",
        "range_types": [
            "SKYTEANLEGG-UTE"
        ],
        "lat": 65.88129557512111,
        "long": 12.283511227572841
    },
    {
        "skytterlag_id": "10603",
        "skytterlag_navn": "Blåfjell Skyttarlag",
        "range_types": [
            "SKYTEANLEGG-UTE",
            "SKYTEANLEGG-INNE"
        ],
        "lat": 60.932555854328314,
        "long": 7.197433732600415
    },
    {
        "skytterlag_id": "10584",
        "skytterlag_navn": "Bodø Østre Skytterlag",
        "range_types": [
            "SKYTEANLEGG-UTE",
            "SKYTEANLEGG-INNE"
        ],
        "lat": 67.29566606608381,
        "long": 14.5159263033422
    },
    {
        "skytterlag_id": "10551",
        "skytterlag_navn": "Bokn Skytterlag",
        "range_types": [
            "SKYTEANLEGG-UTE"
        ],
        "lat": 59.224040157570535,
        "long": 5.401767755741027
    },
    {
        "skytterlag_id": "10193",
        "skytterlag_navn": "Bolkesjø Skytterlag",
        "range_types": [
            "SKYTEANLEGG-UTE"
        ],
        "lat": 59.73034446929621,
        "long": 9.242452632360273
    },
    {
        "skytterlag_id": "10242",
        "skytterlag_navn": "Borstrondi Skyttarlag",
        "range_types": [
            "SKYTEANLEGG-UTE"
        ],
        "lat": 60.7412394474452,
        "long": 6.4929220165218045
    },
    {
        "skytterlag_id": "10340",
        "skytterlag_navn": "Botnan Skytterlag",
        "range_types": [
            "SKYTEANLEGG-UTE"
        ],
        "lat": 64.58545607477855,
        "long": 11.650313969886083
    },
    {
        "skytterlag_id": "10473",
        "skytterlag_navn": "Brandbu Skytterlag",
        "range_types": [
            "SKYTEANLEGG-UTE"
        ],
        "lat": null,
        "long": null
    },
    {
        "skytterlag_id": "10657",
        "skytterlag_navn": "Brandsøy Skytterlag",
        "range_types": [
            "SKYTEANLEGG-UTE",
            "SKYTEANLEGG-INNE"
        ],
        "lat": 61.62745995068279,
        "long": 5.322353187744415
    },
    {
        "skytterlag_id": "10424",
        "skytterlag_navn": "Brekken/aursund Skytterlag",
        "range_types": [
            "SKYTEANLEGG-UTE"
        ],
        "lat": null,
        "long": null
    },
    {
        "skytterlag_id": "1982511",
        "skytterlag_navn": "Bremanger Skytterlag",
        "range_types": [
            "SKYTEANLEGG-UTE"
        ],
        "lat": 61.844617346821444,
        "long": 5.035421684122422
    },
    {
        "skytterlag_id": "10674",
        "skytterlag_navn": "Bremnes Skytterlag",
        "range_types": [
            "SKYTEANLEGG-UTE",
            "SKYTEANLEGG-INNE"
        ],
        "lat": 59.778177487836224,
        "long": 5.215385747566241
    },
    {
        "skytterlag_id": "10727",
        "skytterlag_navn": "Brensholmen Skytterlag",
        "range_types": [
            "SKYTEANLEGG-UTE"
        ],
        "lat": null,
        "long": null
    },
    {
        "skytterlag_id": "10261",
        "skytterlag_navn": "Brumunddal og Nes Skytterlag",
        "range_types": [
            "SKYTEANLEGG-UTE"
        ],
        "lat": 60.911363235594266,
        "long": 11.03991230588322
    },
    {
        "skytterlag_id": "10871",
        "skytterlag_navn": "Brunkeberg og Morgedal Skytterlag",
        "range_types": [
            "SKYTEANLEGG-UTE"
        ],
        "lat": 59.49357411317514,
        "long": 8.330420299861823
    },
    {
        "skytterlag_id": "10365",
        "skytterlag_navn": "Bryggja Skyttarlag",
        "range_types": [
            "SKYTEANLEGG-UTE"
        ],
        "lat": 61.9519129028679,
        "long": 5.474795354941767
    },
    {
        "skytterlag_id": "10802",
        "skytterlag_navn": "Brønnøysund Skytterlag",
        "range_types": [
            "SKYTEANLEGG-INNE",
            "SKYTEANLEGG-UTE"
        ],
        "lat": 65.46731944875904,
        "long": 12.213989614760695
    },
    {
        "skytterlag_id": "10756",
        "skytterlag_navn": "Brøstadbotn Skytterlag",
        "range_types": [
            "SKYTEANLEGG-UTE"
        ],
        "lat": 69.06480122957623,
        "long": 17.71360869701762
    },
    {
        "skytterlag_id": "10523",
        "skytterlag_navn": "Bråtveit Skytterlag",
        "range_types": [
            "SKYTEANLEGG-UTE"
        ],
        "lat": 59.62905669308065,
        "long": 6.7996428162911915
    },
    {
        "skytterlag_id": "10165",
        "skytterlag_navn": "Budal Skytterlag",
        "range_types": [
            "SKYTEANLEGG-INNE",
            "SKYTEANLEGG-UTE"
        ],
        "lat": 62.888004730547905,
        "long": 10.495540440164028
    },
    {
        "skytterlag_id": "10926",
        "skytterlag_navn": "Buer/Kornsjø Skytterlag",
        "range_types": [
            "SKYTEANLEGG-UTE",
            "SKYTEANLEGG-INNE"
        ],
        "lat": 59.02218437604907,
        "long": 11.527890698668465
    },
    {
        "skytterlag_id": "10554",
        "skytterlag_navn": "Bugge Skytterlag",
        "range_types": [
            "SKYTEANLEGG-UTE"
        ],
        "lat": 62.77739626962848,
        "long": 8.098683011409307
    },
    {
        "skytterlag_id": "10150",
        "skytterlag_navn": "By Skytterlag",
        "range_types": [
            "SKYTEANLEGG-INNE",
            "SKYTEANLEGG-UTE"
        ],
        "lat": 63.964548927757505,
        "long": 10.222338720251308
    },
    {
        "skytterlag_id": "10060",
        "skytterlag_navn": "Bygland Skytterlag",
        "range_types": [
            "SKYTEANLEGG-UTE",
            "SKYTEANLEGG-INNE"
        ],
        "lat": 58.842464342308,
        "long": 7.77614771152697
    },
    {
        "skytterlag_id": "10872",
        "skytterlag_navn": "Bykle Skyttarlag",
        "range_types": [
            "FELTANLEGG",
            "SKYTEANLEGG-UTE"
        ],
        "lat": 59.491288145163956,
        "long": 7.427706272672263
    },
    {
        "skytterlag_id": "10760",
        "skytterlag_navn": "Byneset Skytterlag",
        "range_types": [
            "SKYTEANLEGG-INNE",
            "SKYTEANLEGG-UTE"
        ],
        "lat": 63.41975904984952,
        "long": 10.14442632478142
    },
    {
        "skytterlag_id": "10399",
        "skytterlag_navn": "Bæverdalen Skytterlag",
        "range_types": [
            "SKYTEANLEGG-UTE"
        ],
        "lat": 63.0280388217346,
        "long": 8.63636021326472
    },
    {
        "skytterlag_id": "10841",
        "skytterlag_navn": "Bø (Vesterålen) Skytterlag",
        "range_types": [
            "SKYTEANLEGG-INNE",
            "FELTANLEGG",
            "SKYTEANLEGG-UTE"
        ],
        "lat": 68.62444464945388,
        "long": 14.480986870806793
    },
    {
        "skytterlag_id": "10675",
        "skytterlag_navn": "Bømlo Skytterlag",
        "range_types": [
            "SKYTEANLEGG-INNE",
            "SKYTEANLEGG-UTE"
        ],
        "lat": 59.6016494501973,
        "long": 5.2094724916224
    },
    {
        "skytterlag_id": "10136",
        "skytterlag_navn": "Båstad Skytterlag",
        "range_types": [
            "SKYTEANLEGG-INNE",
            "SKYTEANLEGG-UTE"
        ],
        "lat": 59.72532414695605,
        "long": 11.298836789847925
    },
    {
        "skytterlag_id": "10120",
        "skytterlag_navn": "Båtsfjord Skytterlag",
        "range_types": [
            "SKYTEANLEGG-UTE"
        ],
        "lat": 70.61572481607719,
        "long": 29.661878891450595
    },
    {
        "skytterlag_id": "10713",
        "skytterlag_navn": "Dalane Skyttarlag",
        "range_types": [
            "SKYTEANLEGG-UTE"
        ],
        "lat": 61.951902739009654,
        "long": 5.474779339339008
    },
    {
        "skytterlag_id": "10659",
        "skytterlag_navn": "Dale (sunnfjord) Skyttarlag",
        "range_types": [
            "SKYTEANLEGG-UTE",
            "SKYTEANLEGG-INNE"
        ],
        "lat": 61.32028380530086,
        "long": 5.387736893751844
    },
    {
        "skytterlag_id": "10425",
        "skytterlag_navn": "Dalsbygda Skytterlag",
        "range_types": [
            "SKYTEANLEGG-UTE"
        ],
        "lat": 62.539500982376296,
        "long": 11.087662842403196
    },
    {
        "skytterlag_id": "10921",
        "skytterlag_navn": "Degernes Skytterlag",
        "range_types": [
            "SKYTEANLEGG-INNE",
            "SKYTEANLEGG-UTE"
        ],
        "lat": 59.34810761796622,
        "long": 11.42427316657815
    },
    {
        "skytterlag_id": "10891",
        "skytterlag_navn": "Deset Skytterlag",
        "range_types": [
            "SKYTEANLEGG-UTE"
        ],
        "lat": 61.30439292147783,
        "long": 11.443516900919587
    },
    {
        "skytterlag_id": "10935",
        "skytterlag_navn": "Dfs Skytterlag",
        "range_types": [
            "SKYTEANLEGG-UTE"
        ],
        "lat": 59.93026165793678,
        "long": 10.796531673819823
    },
    {
        "skytterlag_id": "10226",
        "skytterlag_navn": "Dovre og Dovreskog Skytterlag",
        "range_types": [
            "SKYTEANLEGG-UTE"
        ],
        "lat": 61.937028350898,
        "long": 9.28530899255395
    },
    {
        "skytterlag_id": "10177",
        "skytterlag_navn": "Drangedal Skytterlag",
        "range_types": [
            "SKYTEANLEGG-UTE",
            "SKYTEANLEGG-INNE"
        ],
        "lat": 59.07642060545509,
        "long": 9.034637290778706
    },
    {
        "skytterlag_id": "10806",
        "skytterlag_navn": "Drevja Skytterlag",
        "range_types": [
            "SKYTEANLEGG-UTE",
            "SKYTEANLEGG-INNE"
        ],
        "lat": 65.98401825700702,
        "long": 13.27250904762652
    },
    {
        "skytterlag_id": "10501",
        "skytterlag_navn": "Dunderlandsdalen Skytterlag",
        "range_types": [
            "SKYTEANLEGG-UTE",
            "SKYTEANLEGG-INNE"
        ],
        "lat": 66.37192863213072,
        "long": 14.591296463668192
    },
    {
        "skytterlag_id": "10851",
        "skytterlag_navn": "Duottar Bahcinsearvi Skytterlag/Viddas Skytterlag",
        "range_types": [
            "SKYTEANLEGG-UTE"
        ],
        "lat": 69.3294805484837,
        "long": 23.96991483813622
    },
    {
        "skytterlag_id": "10842",
        "skytterlag_navn": "Dverberg Skytterlag",
        "range_types": [
            "SKYTEANLEGG-UTE"
        ],
        "lat": 69.11403340816702,
        "long": 15.904746484006349
    },
    {
        "skytterlag_id": "10106",
        "skytterlag_navn": "Dølemo Skyttarlag",
        "range_types": [
            "SKYTEANLEGG-UTE",
            "SKYTEANLEGG-INNE"
        ],
        "lat": 58.71342782972368,
        "long": 8.336579687298832
    },
    {
        "skytterlag_id": "10524",
        "skytterlag_navn": "Egersund Skytterlag",
        "range_types": [
            "SKYTEANLEGG-UTE"
        ],
        "lat": 58.49342085516442,
        "long": 5.991239539135112
    },
    {
        "skytterlag_id": "10310",
        "skytterlag_navn": "Egge Skytterlag",
        "range_types": [
            "SKYTEANLEGG-UTE"
        ],
        "lat": 64.06293152009674,
        "long": 11.50656187872165
    },
    {
        "skytterlag_id": "10400",
        "skytterlag_navn": "Eide og Naas Skytterlag",
        "range_types": [
            "SKYTEANLEGG-UTE",
            "SKYTEANLEGG-INNE"
        ],
        "lat": 62.87410976798585,
        "long": 7.411694261332881
    },
    {
        "skytterlag_id": "10892",
        "skytterlag_navn": "Eidet Skytterlag",
        "range_types": [
            "SKYTEANLEGG-UTE"
        ],
        "lat": 61.49580692512719,
        "long": 12.116359128389071
    },
    {
        "skytterlag_id": "10243",
        "skytterlag_navn": "Eidfjord Skytterlag",
        "range_types": [
            "SKYTEANLEGG-UTE"
        ],
        "lat": 60.422156281587924,
        "long": 7.142684829134544
    },
    {
        "skytterlag_id": "10922",
        "skytterlag_navn": "Eidsberg Skytterlag",
        "range_types": [
            "SKYTEANLEGG-INNE",
            "SKYTEANLEGG-UTE"
        ],
        "lat": 59.56475689475749,
        "long": 11.41442125902711
    },
    {
        "skytterlag_id": "10364",
        "skytterlag_navn": "Eidsbygda Skyttarlag",
        "range_types": [
            "SKYTEANLEGG-UTE",
            "SKYTEANLEGG-INNE"
        ],
        "lat": 61.93865441255081,
        "long": 6.138589165286417
    },
    {
        "skytterlag_id": "10639",
        "skytterlag_navn": "Eidskog Skytterlag",
        "range_types": [
            "SKYTEANLEGG-UTE",
            "SKYTEANLEGG-INNE"
        ],
        "lat": 60.02111320445282,
        "long": 12.30287000977249
    },
    {
        "skytterlag_id": "10078",
        "skytterlag_navn": "Eidsvoll Verk Skytterlag",
        "range_types": [
            "SKYTEANLEGG-INNE",
            "SKYTEANLEGG-UTE"
        ],
        "lat": -42201315.77917977,
        "long": 5728884.208387017
    },
    {
        "skytterlag_id": "10079",
        "skytterlag_navn": "Eidsvoll Østre Skytterlag",
        "range_types": [
            "SKYTEANLEGG-UTE"
        ],
        "lat": 60.335542368915874,
        "long": 11.314623699441782
    },
    {
        "skytterlag_id": "10555",
        "skytterlag_navn": "Eidsvåg og Eidsøra Skytterlag",
        "range_types": [
            "SKYTEANLEGG-UTE"
        ],
        "lat": 62.7777680840147,
        "long": 8.105679312750492
    },
    {
        "skytterlag_id": "10279",
        "skytterlag_navn": "Eikanger-Hjelmås Skyttarlag",
        "range_types": [
            "SKYTEANLEGG-UTE"
        ],
        "lat": 60.63859286136695,
        "long": 5.35753365349621
    },
    {
        "skytterlag_id": "10663",
        "skytterlag_navn": "Eikefjord Skyttarlag",
        "range_types": [
            "SKYTEANLEGG-UTE"
        ],
        "lat": 61.62745995068279,
        "long": 5.322353187744415
    },
    {
        "skytterlag_id": "10556",
        "skytterlag_navn": "Eikesdal Skytterlag",
        "range_types": [
            "SKYTEANLEGG-UTE"
        ],
        "lat": 62.46531167002425,
        "long": 8.20387788422244
    },
    {
        "skytterlag_id": "10474",
        "skytterlag_navn": "Eina Skytterlag",
        "range_types": [
            "SKYTEANLEGG-UTE"
        ],
        "lat": 60.59061868045566,
        "long": 10.57393660916372
    },
    {
        "skytterlag_id": "10448",
        "skytterlag_navn": "Eker Skytterlag",
        "range_types": [
            "SKYTEANLEGG-UTE",
            "SKYTEANLEGG-INNE"
        ],
        "lat": 59.81209527150485,
        "long": 9.812342799260055
    },
    {
        "skytterlag_id": "10893",
        "skytterlag_navn": "Elgen Skytterlag",
        "range_types": [
            "SKYTEANLEGG-UTE"
        ],
        "lat": null,
        "long": null
    },
    {
        "skytterlag_id": "10426",
        "skytterlag_navn": "Elgå Skytterlag",
        "range_types": [
            "SKYTEANLEGG-UTE"
        ],
        "lat": 61.899573291135454,
        "long": 6.115021027899163
    },
    {
        "skytterlag_id": "10894",
        "skytterlag_navn": "Elverum Skytterlag",
        "range_types": [
            "SKYTEANLEGG-INNE",
            "SKYTEANLEGG-UTE"
        ],
        "lat": 60.874567428146406,
        "long": 11.537665451258722
    },
    {
        "skytterlag_id": "10137",
        "skytterlag_navn": "Enebakk Skytterlag",
        "range_types": [
            "SKYTEANLEGG-UTE",
            "SKYTEANLEGG-INNE"
        ],
        "lat": 59.710660363804735,
        "long": 11.144294466494934
    },
    {
        "skytterlag_id": "10895",
        "skytterlag_navn": "Engerdal Skytterlag",
        "range_types": [
            "SKYTEANLEGG-INNE"
        ],
        "lat": null,
        "long": null
    },
    {
        "skytterlag_id": "10896",
        "skytterlag_navn": "Engeren Skytterlag",
        "range_types": [
            "SKYTEANLEGG-UTE"
        ],
        "lat": 61.63955733450063,
        "long": 12.032313461761504
    },
    {
        "skytterlag_id": "10697",
        "skytterlag_navn": "Engesetdal/Skodje Skyttarlag",
        "range_types": [
            "SKYTEANLEGG-UTE",
            "SKYTEANLEGG-INNE"
        ],
        "lat": 62.528307892700354,
        "long": 6.741958411660937
    },
    {
        "skytterlag_id": "10401",
        "skytterlag_navn": "Ertvågøy Skytterlag",
        "range_types": [
            "SKYTEANLEGG-UTE",
            "SKYTEANLEGG-INNE"
        ],
        "lat": 63.24182172439022,
        "long": 8.40720806276672
    },
    {
        "skytterlag_id": "10526",
        "skytterlag_navn": "Espedal Skytterlag",
        "range_types": [
            "SKYTEANLEGG-UTE"
        ],
        "lat": 58.88650280822974,
        "long": 6.153050185121407
    },
    {
        "skytterlag_id": "10793",
        "skytterlag_navn": "Etnedal Skyttarlag",
        "range_types": [
            "FELTANLEGG",
            "SKYTEANLEGG-UTE",
            "SKYTEANLEGG-INNE"
        ],
        "lat": 60.99692125974277,
        "long": 9.626839099174425
    },
    {
        "skytterlag_id": "10456",
        "skytterlag_navn": "Evenes Skytterlag",
        "range_types": [
            "SKYTEANLEGG-UTE",
            "SKYTEANLEGG-INNE"
        ],
        "lat": 68.49349813511155,
        "long": 16.862612315550834
    },
    {
        "skytterlag_id": "10061",
        "skytterlag_navn": "Evje og Hornnes Skytterlag",
        "range_types": [
            "SKYTEANLEGG-INNE",
            "SKYTEANLEGG-UTE"
        ],
        "lat": 58.566380252895044,
        "long": 7.767301609457581
    },
    {
        "skytterlag_id": "10800",
        "skytterlag_navn": "Fagernes Skytterlag",
        "range_types": [
            "SKYTEANLEGG-UTE",
            "SKYTEANLEGG-INNE"
        ],
        "lat": 61.04938003820575,
        "long": 9.153670581171106
    },
    {
        "skytterlag_id": "10502",
        "skytterlag_navn": "Fagervika Skytterlag",
        "range_types": [
            "SKYTEANLEGG-UTE"
        ],
        "lat": 66.09565088360907,
        "long": 12.750544154538176
    },
    {
        "skytterlag_id": "10728",
        "skytterlag_navn": "Falken Skytterlag",
        "range_types": [
            "SKYTEANLEGG-UTE"
        ],
        "lat": 69.25597406466115,
        "long": 18.163484480183573
    },
    {
        "skytterlag_id": "10281",
        "skytterlag_navn": "Fana Skyttarlag",
        "range_types": [
            "SKYTEANLEGG-UTE"
        ],
        "lat": 60.276294513264865,
        "long": 5.32494316046219
    },
    {
        "skytterlag_id": "10605",
        "skytterlag_navn": "Farnes Skyttarlag",
        "range_types": [
            "SKYTEANLEGG-INNE",
            "SKYTEANLEGG-UTE"
        ],
        "lat": 61.30881774823314,
        "long": 7.824637750738975
    },
    {
        "skytterlag_id": "10822",
        "skytterlag_navn": "Farsund Skytterlag",
        "range_types": [
            "SKYTEANLEGG-INNE",
            "SKYTEANLEGG-UTE"
        ],
        "lat": 58.09069505116075,
        "long": 6.688748220234444
    },
    {
        "skytterlag_id": "10874",
        "skytterlag_navn": "Felle Skyttarlag",
        "range_types": [
            "SKYTEANLEGG-UTE"
        ],
        "lat": 7153.497376122335,
        "long": -1621.8412558785176
    },
    {
        "skytterlag_id": "10080",
        "skytterlag_navn": "Fet Skytterlag",
        "range_types": [
            "SKYTEANLEGG-UTE",
            "SKYTEANLEGG-INNE"
        ],
        "lat": 59.93270958455677,
        "long": 11.242502295222339
    },
    {
        "skytterlag_id": "10561",
        "skytterlag_navn": "Fiksdal Skytterlag",
        "range_types": [
            "SKYTEANLEGG-UTE"
        ],
        "lat": 62.594633466549354,
        "long": 6.805134266717831
    },
    {
        "skytterlag_id": "10676",
        "skytterlag_navn": "Fikse Skyttarlag",
        "range_types": [
            "SKYTEANLEGG-INNE",
            "SKYTEANLEGG-UTE"
        ],
        "lat": 59.62480181551401,
        "long": 5.893895965875281
    },
    {
        "skytterlag_id": "10527",
        "skytterlag_navn": "Finnøy Skytterlag",
        "range_types": [
            "SKYTEANLEGG-UTE"
        ],
        "lat": 59.164502137618825,
        "long": 5.836827492632125
    },
    {
        "skytterlag_id": "10062",
        "skytterlag_navn": "Finsland Skytterlag",
        "range_types": [
            "SKYTEANLEGG-UTE"
        ],
        "lat": 58.30999322722502,
        "long": 7.586879639282439
    },
    {
        "skytterlag_id": "10444",
        "skytterlag_navn": "Finstad Skytterlag",
        "range_types": [
            "SKYTEANLEGG-UTE"
        ],
        "lat": 62.09847177759281,
        "long": 11.027451675517879
    },
    {
        "skytterlag_id": "10449",
        "skytterlag_navn": "Fiskum Skytterlag",
        "range_types": [
            "SKYTEANLEGG-UTE",
            "SKYTEANLEGG-INNE"
        ],
        "lat": 59.69188237307466,
        "long": 9.790535536095646
    },
    {
        "skytterlag_id": "10714",
        "skytterlag_navn": "Fiskå Skyttarlag",
        "range_types": [
            "SKYTEANLEGG-UTE",
            "SKYTEANLEGG-INNE"
        ],
        "lat": 62.10110476562449,
        "long": 5.650818646979168
    },
    {
        "skytterlag_id": "10677",
        "skytterlag_navn": "Fitjar Skytterlag",
        "range_types": [
            "SKYTEANLEGG-UTE",
            "SKYTEANLEGG-INNE"
        ],
        "lat": 59.93079344750657,
        "long": 5.337013873443505
    },
    {
        "skytterlag_id": "10897",
        "skytterlag_navn": "Fjeld Skytterlag",
        "range_types": [
            "SKYTEANLEGG-UTE"
        ],
        "lat": 61.88311323584865,
        "long": 12.069728737504512
    },
    {
        "skytterlag_id": "10270",
        "skytterlag_navn": "Fjellværøy Skytterlag",
        "range_types": [
            "SKYTEANLEGG-UTE",
            "SKYTEANLEGG-INNE"
        ],
        "lat": 63.63023184648632,
        "long": 9.063376973789165
    },
    {
        "skytterlag_id": "10304",
        "skytterlag_navn": "Fjon Skyttarlag",
        "range_types": [
            "SKYTEANLEGG-UTE"
        ],
        "lat": 60.83300952669955,
        "long": 5.4132099213704095
    },
    {
        "skytterlag_id": "10636",
        "skytterlag_navn": "Fjordane Skyttarlag",
        "range_types": [
            "FELTANLEGG",
            "SKYTEANLEGG-INNE",
            "SKYTEANLEGG-UTE"
        ],
        "lat": null,
        "long": null
    },
    {
        "skytterlag_id": "10107",
        "skytterlag_navn": "Fjære Skytterlag",
        "range_types": [
            "SKYTEANLEGG-UTE"
        ],
        "lat": 58.3642186664084,
        "long": 8.588616099125318
    },
    {
        "skytterlag_id": "10621",
        "skytterlag_navn": "Fjærland Skyttarlag",
        "range_types": [
            "SKYTEANLEGG-UTE"
        ],
        "lat": null,
        "long": null
    },
    {
        "skytterlag_id": "10341",
        "skytterlag_navn": "Flatanger Skytterlag",
        "range_types": [
            "SKYTEANLEGG-UTE"
        ],
        "lat": 64.50084885201684,
        "long": 10.930876680303236
    },
    {
        "skytterlag_id": "10450",
        "skytterlag_navn": "Flesberg Skytterlag",
        "range_types": [
            "SKYTEANLEGG-UTE",
            "SKYTEANLEGG-INNE"
        ],
        "lat": 59.85530126504642,
        "long": 9.474952029101704
    },
    {
        "skytterlag_id": "10823",
        "skytterlag_navn": "Flikka Skytterlag",
        "range_types": [
            "SKYTEANLEGG-UTE",
            "SKYTEANLEGG-INNE"
        ],
        "lat": 58.347368033177275,
        "long": 6.670002763521493
    },
    {
        "skytterlag_id": "10761",
        "skytterlag_navn": "Floren Skytterlag",
        "range_types": [
            "SKYTEANLEGG-UTE"
        ],
        "lat": 63.47858738759244,
        "long": 11.426116037607125
    },
    {
        "skytterlag_id": "10660",
        "skytterlag_navn": "Florø Skytterlag",
        "range_types": [
            "SKYTEANLEGG-UTE",
            "SKYTEANLEGG-INNE"
        ],
        "lat": 61.62745995068279,
        "long": 5.322353187744415
    },
    {
        "skytterlag_id": "10228",
        "skytterlag_navn": "Flå (hallingdal) Skytterlag",
        "range_types": [
            "SKYTEANLEGG-INNE",
            "SKYTEANLEGG-UTE"
        ],
        "lat": 60.43044575404517,
        "long": 15.462750976985088
    },
    {
        "skytterlag_id": "10762",
        "skytterlag_navn": "Flå (Uttrøndelag) Skytterlag",
        "range_types": [
            "SKYTEANLEGG-INNE",
            "SKYTEANLEGG-UTE"
        ],
        "lat": 63.15117085893084,
        "long": 10.28355013920175
    },
    {
        "skytterlag_id": "10178",
        "skytterlag_navn": "Flåbygd Skyttarlag",
        "range_types": [
            "SKYTEANLEGG-UTE"
        ],
        "lat": 59.319776464503086,
        "long": 8.953942144051773
    },
    {
        "skytterlag_id": "10241",
        "skytterlag_navn": "Folgefonn Skyttarlag",
        "range_types": [
            "SKYTEANLEGG-UTE"
        ],
        "lat": 60.309299904161335,
        "long": 6.6075347300031915
    },
    {
        "skytterlag_id": "10427",
        "skytterlag_navn": "Folldal Skytterlag",
        "range_types": [
            "SKYTEANLEGG-UTE"
        ],
        "lat": 62.134367416892346,
        "long": 9.965922278336024
    },
    {
        "skytterlag_id": "10311",
        "skytterlag_navn": "Forr Skytterlag",
        "range_types": [
            "SKYTEANLEGG-UTE",
            "FELTANLEGG",
            "SKYTEANLEGG-INNE"
        ],
        "lat": 64.10249295871057,
        "long": 11.771926412788941
    },
    {
        "skytterlag_id": "10608",
        "skytterlag_navn": "Fortun Skyttarlag",
        "range_types": [
            "SKYTEANLEGG-UTE"
        ],
        "lat": 55.45761307634416,
        "long": 19.303892052045498
    },
    {
        "skytterlag_id": "10332",
        "skytterlag_navn": "Framverran Skytterlag",
        "range_types": [
            "SKYTEANLEGG-UTE"
        ],
        "lat": 63.87429355959482,
        "long": 11.00457380167185
    },
    {
        "skytterlag_id": "10923",
        "skytterlag_navn": "Fredrikstad Skytterlag",
        "range_types": [
            "SKYTEANLEGG-UTE"
        ],
        "lat": 59.23107441481446,
        "long": 10.951757747163645
    },
    {
        "skytterlag_id": "10403",
        "skytterlag_navn": "Fredø Skytterlag",
        "range_types": [
            "SKYTEANLEGG-UTE"
        ],
        "lat": 62.87718230023608,
        "long": 5.141511594675906
    },
    {
        "skytterlag_id": "10899",
        "skytterlag_navn": "Fregn Skytterlag",
        "range_types": [
            "SKYTEANLEGG-UTE"
        ],
        "lat": -49713.210164937576,
        "long": 22132.03137507287
    },
    {
        "skytterlag_id": "10607",
        "skytterlag_navn": "Fresvik Skyttarlag",
        "range_types": [
            "SKYTEANLEGG-UTE"
        ],
        "lat": 5.509729890579044,
        "long": 11.08058631702309
    },
    {
        "skytterlag_id": "10138",
        "skytterlag_navn": "Frogn og Drøbak Skytterlag",
        "range_types": [
            "SKYTEANLEGG-UTE",
            "SKYTEANLEGG-INNE"
        ],
        "lat": 59.72655136877211,
        "long": 10.652596031288546
    },
    {
        "skytterlag_id": "10108",
        "skytterlag_navn": "Froland Skytterlag",
        "range_types": [
            "SKYTEANLEGG-UTE"
        ],
        "lat": 58.51994777111891,
        "long": 8.55129808354912
    },
    {
        "skytterlag_id": "10309",
        "skytterlag_navn": "Frosta Skytterlag",
        "range_types": [
            "SKYTEANLEGG-UTE",
            "SKYTEANLEGG-INNE"
        ],
        "lat": 63.59788528723612,
        "long": 10.75544934461459
    },
    {
        "skytterlag_id": "10378",
        "skytterlag_navn": "Frøyen og Kalvåg Skyttarlag",
        "range_types": [
            "SKYTEANLEGG-UTE"
        ],
        "lat": 61.760597980763166,
        "long": 4.872410919080949
    },
    {
        "skytterlag_id": "10282",
        "skytterlag_navn": "Frøysetvågen Skyttarlag",
        "range_types": [
            "SKYTEANLEGG-UTE"
        ],
        "lat": 60.84902996788819,
        "long": 5.142074642087671
    },
    {
        "skytterlag_id": "10803",
        "skytterlag_navn": "Fustvatn Skytterlag",
        "range_types": [
            "SKYTEANLEGG-INNE",
            "SKYTEANLEGG-UTE"
        ],
        "lat": 65.88057514061371,
        "long": 13.452901214370314
    },
    {
        "skytterlag_id": "10876",
        "skytterlag_navn": "Fyresdal Skyttarlag",
        "range_types": [
            "SKYTEANLEGG-UTE",
            "SKYTEANLEGG-INNE"
        ],
        "lat": 59.24018249470594,
        "long": 8.063720723255678
    },
    {
        "skytterlag_id": "10429",
        "skytterlag_navn": "Føken Skytterlag",
        "range_types": [
            "SKYTEANLEGG-UTE"
        ],
        "lat": 62.11753065273443,
        "long": 11.6389990883464
    },
    {
        "skytterlag_id": "10661",
        "skytterlag_navn": "Førde Skyttarlag",
        "range_types": [
            "SKYTEANLEGG-UTE",
            "SKYTEANLEGG-INNE"
        ],
        "lat": 61.4782981936326,
        "long": 5.730255443027373
    },
    {
        "skytterlag_id": "10206",
        "skytterlag_navn": "Fåberg Skytterlag",
        "range_types": [
            "SKYTEANLEGG-UTE",
            "SKYTEANLEGG-INNE"
        ],
        "lat": 61.169220879071354,
        "long": 10.326818359815455
    },
    {
        "skytterlag_id": "10428",
        "skytterlag_navn": "Fåset Skytterlag",
        "range_types": [
            "SKYTEANLEGG-UTE"
        ],
        "lat": 62.28324113864249,
        "long": 10.627899684389462
    },
    {
        "skytterlag_id": "10640",
        "skytterlag_navn": "Galterud Skytterlag",
        "range_types": [
            "SKYTEANLEGG-UTE",
            "FELTANLEGG"
        ],
        "lat": 60.208429011325194,
        "long": 11.838838020638367
    },
    {
        "skytterlag_id": "10121",
        "skytterlag_navn": "Gamvik Skytterlag",
        "range_types": [
            "SKYTEANLEGG-UTE"
        ],
        "lat": 71.06519836692496,
        "long": 28.23695216619229
    },
    {
        "skytterlag_id": "10528",
        "skytterlag_navn": "Gann Skytterlag",
        "range_types": [
            "SKYTEANLEGG-UTE"
        ],
        "lat": 58.864453395034005,
        "long": 5.787728249719301
    },
    {
        "skytterlag_id": "10668",
        "skytterlag_navn": "Gaular Skyttarlag",
        "range_types": [
            "SKYTEANLEGG-INNE",
            "FELTANLEGG",
            "SKYTEANLEGG-UTE"
        ],
        "lat": 61.31566708454129,
        "long": 5.77382187272179
    },
    {
        "skytterlag_id": "10207",
        "skytterlag_navn": "Gausdal Skytterlag",
        "range_types": [
            "SKYTEANLEGG-UTE"
        ],
        "lat": 61.287998513492795,
        "long": 9.945516552674487
    },
    {
        "skytterlag_id": "10588",
        "skytterlag_navn": "Gildeskål Skytterlag",
        "range_types": [
            "SKYTEANLEGG-UTE",
            "SKYTEANLEGG-INNE",
            "FELTANLEGG"
        ],
        "lat": 67.01080945138193,
        "long": 14.057700962390046
    },
    {
        "skytterlag_id": "10729",
        "skytterlag_navn": "Gisund Skytterlag",
        "range_types": [
            "SKYTEANLEGG-UTE",
            "FELTANLEGG",
            "SKYTEANLEGG-INNE"
        ],
        "lat": 69.35910216089073,
        "long": 18.055612273468174
    },
    {
        "skytterlag_id": "10081",
        "skytterlag_navn": "Gjerdrum Skytterlag",
        "range_types": [
            "SKYTEANLEGG-INNE",
            "SKYTEANLEGG-UTE"
        ],
        "lat": 60.072135480550095,
        "long": 11.030689525974722
    },
    {
        "skytterlag_id": "10179",
        "skytterlag_navn": "Gjerpen Skytterlag",
        "range_types": [
            "SKYTEANLEGG-UTE"
        ],
        "lat": 59.29971539250884,
        "long": 9.563307822106108
    },
    {
        "skytterlag_id": "10529",
        "skytterlag_navn": "Gjesdal Skytterlag",
        "range_types": [
            "SKYTEANLEGG-INNE",
            "SKYTEANLEGG-UTE"
        ],
        "lat": 58.746117464561955,
        "long": 5.922683676854399
    },
    {
        "skytterlag_id": "10110",
        "skytterlag_navn": "Gjøvdal Skyttarlag",
        "range_types": [
            "SKYTEANLEGG-UTE"
        ],
        "lat": 58.863215876072736,
        "long": 8.301008592018064
    },
    {
        "skytterlag_id": "10476",
        "skytterlag_navn": "Gjøvik og Brusveen Skytterlag",
        "range_types": [
            "FELTANLEGG",
            "SKYTEANLEGG-INNE",
            "SKYTEANLEGG-UTE"
        ],
        "lat": 60.7870190665648,
        "long": 10.511187265639965
    },
    {
        "skytterlag_id": "10430",
        "skytterlag_navn": "Glåmos Skytterlag",
        "range_types": [
            "SKYTEANLEGG-UTE"
        ],
        "lat": 62.65085725666281,
        "long": 11.334944542984786
    },
    {
        "skytterlag_id": "10230",
        "skytterlag_navn": "Gol og Ødegården Skyttarlag",
        "range_types": [
            "SKYTEANLEGG-UTE",
            "SKYTEANLEGG-INNE"
        ],
        "lat": 60.76947050704872,
        "long": 8.789248166188546
    },
    {
        "skytterlag_id": "10811",
        "skytterlag_navn": "Grane Skytterlag",
        "range_types": [
            "SKYTEANLEGG-INNE",
            "FELTANLEGG",
            "SKYTEANLEGG-UTE"
        ],
        "lat": 65.53456607239208,
        "long": 13.400632511378733
    },
    {
        "skytterlag_id": "10195",
        "skytterlag_navn": "Gransherad og Heddal Skyttarlag",
        "range_types": [
            "SKYTEANLEGG-INNE",
            "SKYTEANLEGG-UTE"
        ],
        "lat": null,
        "long": null
    },
    {
        "skytterlag_id": "10245",
        "skytterlag_navn": "Granvin Skyttarlag",
        "range_types": [
            "FELTANLEGG",
            "SKYTEANLEGG-UTE"
        ],
        "lat": 60.59542948350871,
        "long": 6.681405465908883
    },
    {
        "skytterlag_id": "10342",
        "skytterlag_navn": "Gravvik og Aarsetfjorden Skytterlag",
        "range_types": [
            "SKYTEANLEGG-UTE"
        ],
        "lat": null,
        "long": null
    },
    {
        "skytterlag_id": "10063",
        "skytterlag_navn": "Greipstad Skytterlag",
        "range_types": [
            "SKYTEANLEGG-UTE",
            "SKYTEANLEGG-INNE"
        ],
        "lat": 58.181407648946724,
        "long": 7.840150558188004
    },
    {
        "skytterlag_id": "10824",
        "skytterlag_navn": "Grindølen Skytterlag",
        "range_types": [
            "SKYTEANLEGG-UTE",
            "SKYTEANLEGG-INNE"
        ],
        "lat": 58.43896059017645,
        "long": 7.425903550159597
    },
    {
        "skytterlag_id": "10343",
        "skytterlag_navn": "Grong Skytterlag",
        "range_types": [
            "SKYTEANLEGG-INNE",
            "SKYTEANLEGG-UTE"
        ],
        "lat": null,
        "long": null
    },
    {
        "skytterlag_id": "10642",
        "skytterlag_navn": "Grue Finnskog Skytterlag",
        "range_types": [
            "SKYTEANLEGG-UTE"
        ],
        "lat": 60.4289661820975,
        "long": 12.380140749251709
    },
    {
        "skytterlag_id": "10641",
        "skytterlag_navn": "Grue Skytterlag",
        "range_types": [
            "SKYTEANLEGG-UTE"
        ],
        "lat": 60.423689401352135,
        "long": 12.129831869262448
    },
    {
        "skytterlag_id": "10626",
        "skytterlag_navn": "Gula Skyttarlag",
        "range_types": [
            "SKYTEANLEGG-UTE",
            "SKYTEANLEGG-INNE"
        ],
        "lat": 60.98633761321592,
        "long": 5.106356943998362
    },
    {
        "skytterlag_id": "10366",
        "skytterlag_navn": "Gulen Skyttarlag",
        "range_types": [
            "SKYTEANLEGG-UTE",
            "SKYTEANLEGG-INNE"
        ],
        "lat": 61.75750584749904,
        "long": 5.190918702518328
    },
    {
        "skytterlag_id": "10344",
        "skytterlag_navn": "Gutvik Skytterlag",
        "range_types": [
            "SKYTEANLEGG-UTE"
        ],
        "lat": 65.10064935000682,
        "long": 11.880323775497542
    },
    {
        "skytterlag_id": "10839",
        "skytterlag_navn": "Gyland Skytterlag",
        "range_types": [
            "SKYTEANLEGG-INNE",
            "SKYTEANLEGG-UTE"
        ],
        "lat": null,
        "long": null
    },
    {
        "skytterlag_id": "10231",
        "skytterlag_navn": "Hadding Skytterlag",
        "range_types": [
            "SKYTEANLEGG-UTE"
        ],
        "lat": 60.64528992565962,
        "long": 8.602615448090464
    },
    {
        "skytterlag_id": "10609",
        "skytterlag_navn": "Hafslo Skyttarlag",
        "range_types": [
            "SKYTEANLEGG-UTE",
            "SKYTEANLEGG-INNE"
        ],
        "lat": 61.33025625596185,
        "long": 7.238136449894849
    },
    {
        "skytterlag_id": "10082",
        "skytterlag_navn": "Haga Skytterlag",
        "range_types": [
            "SKYTEANLEGG-UTE",
            "SKYTEANLEGG-INNE"
        ],
        "lat": 60.05728728012618,
        "long": 11.430438865888924
    },
    {
        "skytterlag_id": "10924",
        "skytterlag_navn": "Halden Skytterlag",
        "range_types": [
            "SKYTEANLEGG-INNE",
            "SKYTEANLEGG-UTE"
        ],
        "lat": 59.15869592123764,
        "long": 11.381368989147068
    },
    {
        "skytterlag_id": "10847",
        "skytterlag_navn": "Halkkavarre Skytterlag",
        "range_types": [
            "SKYTEANLEGG-UTE"
        ],
        "lat": 69.95195915080505,
        "long": 24.957419576490153
    },
    {
        "skytterlag_id": "10233",
        "skytterlag_navn": "Hallingskarvet Skytterlag",
        "range_types": [
            "SKYTEANLEGG-UTE",
            "SKYTEANLEGG-INNE",
            "SKYTEANLEGG-INNE-ANDR",
            "FELTANLEGG",
            "SKYTEANLEGG-ANDR"
        ],
        "lat": 60.61949858333958,
        "long": 8.185776154154377
    },
    {
        "skytterlag_id": "10404",
        "skytterlag_navn": "Halsa (Nordmør) Skytterlag",
        "range_types": [
            "SKYTEANLEGG-INNE",
            "SKYTEANLEGG-UTE"
        ],
        "lat": 63.120142628262926,
        "long": 8.322597712867516
    },
    {
        "skytterlag_id": "10586",
        "skytterlag_navn": "Halsa (Salten) Skytterlag",
        "range_types": [
            "SKYTEANLEGG-UTE"
        ],
        "lat": 66.74508603629519,
        "long": 13.607939407367256
    },
    {
        "skytterlag_id": "10166",
        "skytterlag_navn": "Haltdalen Skytterlag",
        "range_types": [
            "SKYTEANLEGG-UTE"
        ],
        "lat": 62.91428984102134,
        "long": 11.126616490469129
    },
    {
        "skytterlag_id": "10853",
        "skytterlag_navn": "Hammerfest Skytterlag",
        "range_types": [
            "SKYTEANLEGG-UTE",
            "SKYTEANLEGG-INNE"
        ],
        "lat": 70.67283822337203,
        "long": 23.702057061923377
    },
    {
        "skytterlag_id": "10248",
        "skytterlag_navn": "Hardanger Skyttarlag",
        "range_types": [
            "SKYTEANLEGG-INNE-ANDR",
            "SKYTEANLEGG-UTE",
            "SKYTEANLEGG-INNE"
        ],
        "lat": 60.25692528918075,
        "long": 6.013898480629258
    },
    {
        "skytterlag_id": "10345",
        "skytterlag_navn": "Harran Skytterlag",
        "range_types": [
            "SKYTEANLEGG-UTE"
        ],
        "lat": 64.59359768587997,
        "long": 12.562050662053181
    },
    {
        "skytterlag_id": "10679",
        "skytterlag_navn": "Hatlestrand og Ølve Skytterlag",
        "range_types": [
            "SKYTEANLEGG-UTE",
            "SKYTEANLEGG-INNE"
        ],
        "lat": 60.024828277796374,
        "long": 5.832427009741558
    },
    {
        "skytterlag_id": "10804",
        "skytterlag_navn": "Hattfjelldal Skytterlag",
        "range_types": [
            "SKYTEANLEGG-UTE",
            "SKYTEANLEGG-INNE"
        ],
        "lat": 65.60925900205467,
        "long": 13.95108798854644
    },
    {
        "skytterlag_id": "10367",
        "skytterlag_navn": "Haugen Skyttarlag",
        "range_types": [
            "SKYTEANLEGG-UTE"
        ],
        "lat": 61.94971559027409,
        "long": 5.903902285884005
    },
    {
        "skytterlag_id": "10530",
        "skytterlag_navn": "Haugesund og Sveio Skyttarlag",
        "range_types": [
            "SKYTEANLEGG-UTE",
            "SKYTEANLEGG-ANDR",
            "SKYTEANLEGG-INNE"
        ],
        "lat": 59.47853301742317,
        "long": 5.330689612189646
    },
    {
        "skytterlag_id": "10540",
        "skytterlag_navn": "Hebnes Skyttarlag",
        "range_types": [
            "SKYTEANLEGG-UTE"
        ],
        "lat": 59.41124195304905,
        "long": 6.0392429880624015
    },
    {
        "skytterlag_id": "10794",
        "skytterlag_navn": "Hedalen Skyttarlag",
        "range_types": [
            "SKYTEANLEGG-UTE"
        ],
        "lat": 81153.70493318026,
        "long": 66802.95989576002
    },
    {
        "skytterlag_id": "10825",
        "skytterlag_navn": "Heddeland og Breland Skytterlag",
        "range_types": [
            "SKYTEANLEGG-UTE",
            "SKYTEANLEGG-INNE"
        ],
        "lat": 58.176337491684365,
        "long": 7.671505401516522
    },
    {
        "skytterlag_id": "10857",
        "skytterlag_navn": "Hedrum Skytterlag",
        "range_types": [
            "SKYTEANLEGG-UTE"
        ],
        "lat": 59.14703759841916,
        "long": 10.03611962047303
    },
    {
        "skytterlag_id": "10610",
        "skytterlag_navn": "Hegg Skyttarlag",
        "range_types": [
            "SKYTEANLEGG-UTE"
        ],
        "lat": 60.980727235805496,
        "long": 7.69532581624007
    },
    {
        "skytterlag_id": "10764",
        "skytterlag_navn": "Hegra Skytterlag",
        "range_types": [
            "SKYTEANLEGG-UTE"
        ],
        "lat": 63.45078874199061,
        "long": 11.162798290185002
    },
    {
        "skytterlag_id": "10805",
        "skytterlag_navn": "Heilhornet Skytterlag",
        "range_types": [
            "SKYTEANLEGG-UTE"
        ],
        "lat": 65.11725452678762,
        "long": 12.193515570906097
    },
    {
        "skytterlag_id": "10765",
        "skytterlag_navn": "Heim/Hemne Skytterlag",
        "range_types": [
            "FELTANLEGG",
            "SKYTEANLEGG-INNE",
            "SKYTEANLEGG-UTE"
        ],
        "lat": 63.43724758825947,
        "long": 9.024673245733592
    },
    {
        "skytterlag_id": "10312",
        "skytterlag_navn": "Helgådal Skytterlag",
        "range_types": [
            "SKYTEANLEGG-UTE"
        ],
        "lat": 63.83386590252155,
        "long": 11.999590916612123
    },
    {
        "skytterlag_id": "10503",
        "skytterlag_navn": "Hemnes og Sør-Rana Skytterlag",
        "range_types": [
            "SKYTEANLEGG-INNE"
        ],
        "lat": 66.18572985970658,
        "long": 13.789918465762701
    },
    {
        "skytterlag_id": "10232",
        "skytterlag_navn": "Hemsedal Skytterlag",
        "range_types": [
            "SKYTEANLEGG-UTE",
            "SKYTEANLEGG-INNE"
        ],
        "lat": 60.84334108994845,
        "long": 8.575502544044987
    },
    {
        "skytterlag_id": "10313",
        "skytterlag_navn": "Henning Skytterlag",
        "range_types": [
            "SKYTEANLEGG-UTE",
            "FELTANLEGG"
        ],
        "lat": 63.94347066555677,
        "long": 11.636892377092147
    },
    {
        "skytterlag_id": "10286",
        "skytterlag_navn": "Herdla Skyttarlag",
        "range_types": [
            "SKYTEANLEGG-UTE",
            "SKYTEANLEGG-INNE"
        ],
        "lat": 60.570389309980115,
        "long": 4.9479415147106085
    },
    {
        "skytterlag_id": "10111",
        "skytterlag_navn": "Herefoss Skytterlag",
        "range_types": [
            "SKYTEANLEGG-UTE"
        ],
        "lat": 58.55667749042559,
        "long": 8.374066853846827
    },
    {
        "skytterlag_id": "10152",
        "skytterlag_navn": "Herfjord Skytterlag",
        "range_types": [
            "SKYTEANLEGG-INNE",
            "SKYTEANLEGG-UTE",
            "FELTANLEGG"
        ],
        "lat": 63.964548927757505,
        "long": 10.222338720251308
    },
    {
        "skytterlag_id": "10531",
        "skytterlag_navn": "Heskestad Skytterlag",
        "range_types": [
            "SKYTEANLEGG-UTE"
        ],
        "lat": 58.53567371920983,
        "long": 6.373091127867058
    },
    {
        "skytterlag_id": "10431",
        "skytterlag_navn": "Hessdalen Skytterlag",
        "range_types": [
            "SKYTEANLEGG-UTE"
        ],
        "lat": 62.76783587712602,
        "long": 11.180309203586487
    },
    {
        "skytterlag_id": "10694",
        "skytterlag_navn": "Hildre og Brattvåg Skyttarlag",
        "range_types": [
            "SKYTEANLEGG-INNE",
            "SKYTEANLEGG-UTE"
        ],
        "lat": 62.60371575422304,
        "long": 6.3526543991547015
    },
    {
        "skytterlag_id": "10196",
        "skytterlag_navn": "Hjartdal Skytterlag",
        "range_types": [
            "SKYTEANLEGG-UTE"
        ],
        "lat": 59.59958424005637,
        "long": 8.71031534350206
    },
    {
        "skytterlag_id": "10724",
        "skytterlag_navn": "Hjartåbygda Skyttarlag",
        "range_types": [
            "SKYTEANLEGG-UTE",
            "FELTANLEGG"
        ],
        "lat": 62.10368338763267,
        "long": 6.217816807824805
    },
    {
        "skytterlag_id": "10532",
        "skytterlag_navn": "Hjelmeland Skytterlag",
        "range_types": [
            "SKYTEANLEGG-UTE"
        ],
        "lat": 59.18801372391998,
        "long": 6.1369150185683985
    },
    {
        "skytterlag_id": "10405",
        "skytterlag_navn": "Hjelmen Skytterlag",
        "range_types": [
            "SKYTEANLEGG-UTE",
            "SKYTEANLEGG-INNE"
        ],
        "lat": 63.02484943628983,
        "long": 8.404920336024453
    },
    {
        "skytterlag_id": "10715",
        "skytterlag_navn": "Hjørungavåg Skyttarlag",
        "range_types": [
            "SKYTEANLEGG-UTE",
            "SKYTEANLEGG-INNE"
        ],
        "lat": 62.327303192045875,
        "long": 6.015314621649443
    },
    {
        "skytterlag_id": "10139",
        "skytterlag_navn": "Hobøl Skytterlag",
        "range_types": [
            "SKYTEANLEGG-INNE",
            "SKYTEANLEGG-UTE"
        ],
        "lat": 59.54968579168412,
        "long": 10.844617293306204
    },
    {
        "skytterlag_id": "10443",
        "skytterlag_navn": "Hodalen Skytterlag",
        "range_types": [
            "SKYTEANLEGG-UTE"
        ],
        "lat": 62.3520249786982,
        "long": 11.214723098740032
    },
    {
        "skytterlag_id": "10644",
        "skytterlag_navn": "Hof Finnskog Skytterlag",
        "range_types": [
            "SKYTEANLEGG-UTE"
        ],
        "lat": 60.61647438712921,
        "long": 12.30010504052482
    },
    {
        "skytterlag_id": "10643",
        "skytterlag_navn": "Hof (Solør) Skytterlag",
        "range_types": [
            "SKYTEANLEGG-UTE"
        ],
        "lat": null,
        "long": null
    },
    {
        "skytterlag_id": "10858",
        "skytterlag_navn": "Hof (Vestfold) Skytterlag",
        "range_types": [
            "SKYTEANLEGG-UTE"
        ],
        "lat": 59.5229551871591,
        "long": 10.022950856752667
    },
    {
        "skytterlag_id": "10153",
        "skytterlag_navn": "Hofstaddalen Skytterlag",
        "range_types": [
            "SKYTEANLEGG-INNE",
            "SKYTEANLEGG-UTE"
        ],
        "lat": null,
        "long": null
    },
    {
        "skytterlag_id": "10180",
        "skytterlag_navn": "Holla Skytterlag",
        "range_types": [
            "SKYTEANLEGG-UTE"
        ],
        "lat": 59.25174663543681,
        "long": 9.258225293019347
    },
    {
        "skytterlag_id": "10859",
        "skytterlag_navn": "Holmestrand og Omegn Skytterlag",
        "range_types": [
            "SKYTEANLEGG-UTE"
        ],
        "lat": 59.562204255430956,
        "long": 10.164685144151363
    },
    {
        "skytterlag_id": "10664",
        "skytterlag_navn": "Holsen Skyttarlag",
        "range_types": [
            "SKYTEANLEGG-UTE"
        ],
        "lat": 61.40297153462086,
        "long": 6.215981640454
    },
    {
        "skytterlag_id": "10827",
        "skytterlag_navn": "Holum Skytterlag",
        "range_types": [
            "SKYTEANLEGG-INNE",
            "SKYTEANLEGG-UTE"
        ],
        "lat": 58.098028803055186,
        "long": 7.523040220687965
    },
    {
        "skytterlag_id": "10766",
        "skytterlag_navn": "Hommelvik Skytterlag",
        "range_types": [
            "SKYTEANLEGG-UTE",
            "SKYTEANLEGG-INNE"
        ],
        "lat": 63.381242902371405,
        "long": 10.766199532607967
    },
    {
        "skytterlag_id": "10848",
        "skytterlag_navn": "Honningsvåg Skytterlag",
        "range_types": [
            "SKYTEANLEGG-UTE"
        ],
        "lat": 71.00749894460749,
        "long": 25.983302974396224
    },
    {
        "skytterlag_id": "10376",
        "skytterlag_navn": "Hornindal og Markane Skyttarlag",
        "range_types": [
            "SKYTEANLEGG-INNE",
            "SKYTEANLEGG-UTE"
        ],
        "lat": 61.972399345469405,
        "long": 6.52038093992997
    },
    {
        "skytterlag_id": "10406",
        "skytterlag_navn": "Hov Skytterlag",
        "range_types": [
            "SKYTEANLEGG-INNE",
            "SKYTEANLEGG-UTE"
        ],
        "lat": 56.416753809041936,
        "long": 20.77790677653835
    },
    {
        "skytterlag_id": "10716",
        "skytterlag_navn": "Hovdebygda og Ørsta Skyttarlag",
        "range_types": [
            "SKYTEANLEGG-INNE",
            "SKYTEANLEGG-UTE"
        ],
        "lat": 62.1974667612384,
        "long": 6.1296572182438
    },
    {
        "skytterlag_id": "10167",
        "skytterlag_navn": "Hovin (Gauldal) Skytterlag",
        "range_types": [
            "SKYTEANLEGG-UTE",
            "SKYTEANLEGG-INNE"
        ],
        "lat": 63.102667755604976,
        "long": 10.20320575662936
    },
    {
        "skytterlag_id": "10204",
        "skytterlag_navn": "Hovin Skytterlag (Telemark)",
        "range_types": [
            "SKYTEANLEGG-UTE"
        ],
        "lat": 59.8493359908105,
        "long": 9.04161741461865
    },
    {
        "skytterlag_id": "10369",
        "skytterlag_navn": "Hundeide Skyttarlag",
        "range_types": [
            "SKYTEANLEGG-UTE"
        ],
        "lat": 61.88630517719178,
        "long": 5.886292385460695
    },
    {
        "skytterlag_id": "10084",
        "skytterlag_navn": "Hurdal Skytterlag",
        "range_types": [
            "SKYTEANLEGG-UTE"
        ],
        "lat": 60.44733821989537,
        "long": 11.060994748542317
    },
    {
        "skytterlag_id": "10680",
        "skytterlag_navn": "Husnes Skyttarlag",
        "range_types": [
            "SKYTEANLEGG-INNE",
            "FELTANLEGG",
            "SKYTEANLEGG-UTE"
        ],
        "lat": 59.86028389363404,
        "long": 5.75553862976982
    },
    {
        "skytterlag_id": "10563",
        "skytterlag_navn": "Hustad Skytterlag",
        "range_types": [
            "SKYTEANLEGG-UTE"
        ],
        "lat": 62.92065094442142,
        "long": 13.108757026132686
    },
    {
        "skytterlag_id": "10861",
        "skytterlag_navn": "Hvarnes Skytterlag",
        "range_types": [
            "SKYTEANLEGG-UTE"
        ],
        "lat": 59.296692196289534,
        "long": 9.947376415141646
    },
    {
        "skytterlag_id": "10370",
        "skytterlag_navn": "Hyen Skyttarlag",
        "range_types": [
            "SKYTEANLEGG-UTE",
            "SKYTEANLEGG-INNE"
        ],
        "lat": 61.723463476408334,
        "long": 5.9237091781988696
    },
    {
        "skytterlag_id": "10673",
        "skytterlag_navn": "Hyllestad Skyttarlag",
        "range_types": [
            "SKYTEANLEGG-UTE"
        ],
        "lat": 61.224600929590544,
        "long": 5.208583833668742
    },
    {
        "skytterlag_id": "10826",
        "skytterlag_navn": "Hægebostad Skytterlag",
        "range_types": [
            "SKYTEANLEGG-UTE"
        ],
        "lat": 58.4303675705492,
        "long": 13.17890223529071
    },
    {
        "skytterlag_id": "10064",
        "skytterlag_navn": "Hægeland Skytterlag",
        "range_types": [
            "SKYTEANLEGG-UTE",
            "SKYTEANLEGG-INNE"
        ],
        "lat": 58.375739003525545,
        "long": 7.7696663192815265
    },
    {
        "skytterlag_id": "10085",
        "skytterlag_navn": "Høland/Bjørkelangen Skytterlag",
        "range_types": [
            "SKYTEANLEGG-UTE",
            "SKYTEANLEGG-INNE"
        ],
        "lat": 59.83118753845215,
        "long": 11.570365088133983
    },
    {
        "skytterlag_id": "10767",
        "skytterlag_navn": "Hølonda Skytterlag",
        "range_types": [
            "SKYTEANLEGG-INNE",
            "SKYTEANLEGG-UTE"
        ],
        "lat": null,
        "long": null
    },
    {
        "skytterlag_id": "10877",
        "skytterlag_navn": "Høydalsmo Skyttarlag",
        "range_types": [
            "SKYTEANLEGG-UTE"
        ],
        "lat": 59.47481252551076,
        "long": 8.166252039457213
    },
    {
        "skytterlag_id": "10862",
        "skytterlag_navn": "Høyjord og Ramnes Skytterlag",
        "range_types": [
            "SKYTEANLEGG-UTE"
        ],
        "lat": 59.38600117970086,
        "long": 10.156491572675407
    },
    {
        "skytterlag_id": "10346",
        "skytterlag_navn": "Høylandet Skytterlag",
        "range_types": [
            "SKYTEANLEGG-INNE",
            "SKYTEANLEGG-UTE"
        ],
        "lat": 64.62460006313172,
        "long": 12.293445371086309
    },
    {
        "skytterlag_id": "10681",
        "skytterlag_navn": "Høylandsbygd Skytterlag",
        "range_types": [
            "SKYTEANLEGG-UTE",
            "SKYTEANLEGG-INNE"
        ],
        "lat": 59.77412297178964,
        "long": 5.75720987218633
    },
    {
        "skytterlag_id": "10662",
        "skytterlag_navn": "Høyvik Skyttarlag",
        "range_types": [
            "SKYTEANLEGG-INNE",
            "SKYTEANLEGG-UTE"
        ],
        "lat": 61.32631540281156,
        "long": 5.022802054103638
    },
    {
        "skytterlag_id": "10533",
        "skytterlag_navn": "Hå Skytterlag",
        "range_types": [
            "SKYTEANLEGG-UTE",
            "SKYTEANLEGG-INNE"
        ],
        "lat": 58.611778006675486,
        "long": 5.69617126661422
    },
    {
        "skytterlag_id": "10287",
        "skytterlag_navn": "Hålandsdal/Eikelandsfjorden Skytterlag",
        "range_types": [
            "SKYTEANLEGG-UTE"
        ],
        "lat": 60.23246949442418,
        "long": 5.825990640491977
    },
    {
        "skytterlag_id": "10112",
        "skytterlag_navn": "Imenes Skytterlag",
        "range_types": [
            "SKYTEANLEGG-UTE",
            "SKYTEANLEGG-INNE"
        ],
        "lat": 58.36043084210276,
        "long": 8.516550707034924
    },
    {
        "skytterlag_id": "10315",
        "skytterlag_navn": "Inderøy Skytterlag",
        "range_types": [
            "SKYTEANLEGG-UTE",
            "SKYTEANLEGG-INNE"
        ],
        "lat": 63.893294172159536,
        "long": 11.206462598603398
    },
    {
        "skytterlag_id": "10348",
        "skytterlag_navn": "Indre Bindal Skytterlag",
        "range_types": [
            "SKYTEANLEGG-UTE"
        ],
        "lat": 65.11655057000145,
        "long": 12.508134398183113
    },
    {
        "skytterlag_id": "10371",
        "skytterlag_navn": "Indre Breim Skyttarlag",
        "range_types": [
            "SKYTEANLEGG-UTE"
        ],
        "lat": 61.739742444055835,
        "long": 6.538233584842066
    },
    {
        "skytterlag_id": "10372",
        "skytterlag_navn": "Indre Gloppen Skyttarlag",
        "range_types": [
            "SKYTEANLEGG-UTE"
        ],
        "lat": 61.762349395662845,
        "long": 6.200204089276932
    },
    {
        "skytterlag_id": "10314",
        "skytterlag_navn": "Inndal Skytterlag",
        "range_types": [
            "SKYTEANLEGG-UTE"
        ],
        "lat": 63.6723767654878,
        "long": 12.000222603284412
    },
    {
        "skytterlag_id": "10168",
        "skytterlag_navn": "Innset Skytterlag",
        "range_types": [
            "SKYTEANLEGG-INNE",
            "SKYTEANLEGG-UTE"
        ],
        "lat": 62.716347765882226,
        "long": 10.032423677648401
    },
    {
        "skytterlag_id": "10925",
        "skytterlag_navn": "Ise Skytterlag",
        "range_types": [
            "SKYTEANLEGG-UTE"
        ],
        "lat": 59.30087994714079,
        "long": 11.2392879711057
    },
    {
        "skytterlag_id": "10564",
        "skytterlag_navn": "Isfjorden og Åndalsnes Skytterlag",
        "range_types": [
            "SKYTEANLEGG-UTE"
        ],
        "lat": 62.586715479585,
        "long": 7.808648250893166
    },
    {
        "skytterlag_id": "10065",
        "skytterlag_navn": "Iveland Skytterlag",
        "range_types": [
            "SKYTEANLEGG-UTE",
            "SKYTEANLEGG-INNE"
        ],
        "lat": 58.42884278605502,
        "long": 7.921545410746842
    },
    {
        "skytterlag_id": "10525",
        "skytterlag_navn": "Jelsa og Erfjord Skytterlag",
        "range_types": [
            "SKYTEANLEGG-UTE"
        ],
        "lat": 59.338452020342686,
        "long": 6.051308827737284
    },
    {
        "skytterlag_id": "10208",
        "skytterlag_navn": "Jo Gjende Skytterlag",
        "range_types": [
            "SKYTEANLEGG-UTE"
        ],
        "lat": 61.72209560008986,
        "long": 9.16749160698678
    },
    {
        "skytterlag_id": "10246",
        "skytterlag_navn": "Jondal Skyttarlag",
        "range_types": [
            "SKYTEANLEGG-INNE",
            "SKYTEANLEGG-UTE"
        ],
        "lat": null,
        "long": null
    },
    {
        "skytterlag_id": "10451",
        "skytterlag_navn": "Jondalen Skytterlag",
        "range_types": [
            "SKYTEANLEGG-INNE",
            "SKYTEANLEGG-UTE"
        ],
        "lat": 59.70399771144693,
        "long": 9.468133035949403
    },
    {
        "skytterlag_id": "10247",
        "skytterlag_navn": "Jordalen Skyttarlag",
        "range_types": [
            "SKYTEANLEGG-UTE"
        ],
        "lat": 60.88813003627484,
        "long": 6.722302588297715
    },
    {
        "skytterlag_id": "10422",
        "skytterlag_navn": "Jordalsgrend og Øksendal Skytterlag",
        "range_types": [
            "SKYTEANLEGG-UTE"
        ],
        "lat": null,
        "long": null
    },
    {
        "skytterlag_id": "10900",
        "skytterlag_navn": "Jordet og Tenaasen Skytterlag",
        "range_types": [
            "SKYTEANLEGG-UTE"
        ],
        "lat": 61.34089941915653,
        "long": 11.927674186890746
    },
    {
        "skytterlag_id": "10604",
        "skytterlag_navn": "Jostedal Skyttarlag",
        "range_types": [
            "SKYTEANLEGG-UTE"
        ],
        "lat": 61.63034456966732,
        "long": 7.260255772278415
    },
    {
        "skytterlag_id": "10347",
        "skytterlag_navn": "Jøa Skytterlag",
        "range_types": [
            "SKYTEANLEGG-INNE",
            "SKYTEANLEGG-UTE"
        ],
        "lat": 64.65125720939756,
        "long": 11.265922228395828
    },
    {
        "skytterlag_id": "10665",
        "skytterlag_navn": "Jølster Skyttarlag",
        "range_types": [
            "SKYTEANLEGG-INNE",
            "SKYTEANLEGG-UTE"
        ],
        "lat": 61.521799069514906,
        "long": 6.383951775051052
    },
    {
        "skytterlag_id": "10898",
        "skytterlag_navn": "Jømna/Heradsbygd Skytterlag",
        "range_types": [
            "SKYTEANLEGG-UTE"
        ],
        "lat": 60.8495132118791,
        "long": 11.67570445707388
    },
    {
        "skytterlag_id": "10534",
        "skytterlag_navn": "Jørpeland Skytterlag",
        "range_types": [
            "SKYTEANLEGG-UTE",
            "SKYTEANLEGG-INNE"
        ],
        "lat": 59.03974072397901,
        "long": 6.059638150373496
    },
    {
        "skytterlag_id": "10535",
        "skytterlag_navn": "Jøsenfjord Skytterlag",
        "range_types": [
            "SKYTEANLEGG-UTE"
        ],
        "lat": 59.32973018028179,
        "long": 6.457292717018312
    },
    {
        "skytterlag_id": "10849",
        "skytterlag_navn": "Karasjok Skytterlag",
        "range_types": [
            "SKYTEANLEGG-UTE",
            "SKYTEANLEGG-INNE"
        ],
        "lat": 69.48917298071729,
        "long": 25.508727935744666
    },
    {
        "skytterlag_id": "10537",
        "skytterlag_navn": "Karmøy Skytterlag",
        "range_types": [
            "SKYTEANLEGG-UTE",
            "SKYTEANLEGG-INNE"
        ],
        "lat": 59.190384893842975,
        "long": 5.304555064594929
    },
    {
        "skytterlag_id": "10850",
        "skytterlag_navn": "Kautokeino Skytterlag",
        "range_types": [
            "SKYTEANLEGG-INNE",
            "FELTANLEGG",
            "SKYTEANLEGG-UTE"
        ],
        "lat": 69.0187335416407,
        "long": 23.057357747251608
    },
    {
        "skytterlag_id": "10181",
        "skytterlag_navn": "Kilebygda og Bolvik Skytterlag",
        "range_types": [
            "SKYTEANLEGG-UTE"
        ],
        "lat": 59.12659645538668,
        "long": 9.383455611884676
    },
    {
        "skytterlag_id": "10154",
        "skytterlag_navn": "Kiran Skytterlag",
        "range_types": [
            "SKYTEANLEGG-UTE"
        ],
        "lat": 64.12879062761067,
        "long": 10.139497016989377
    },
    {
        "skytterlag_id": "10122",
        "skytterlag_navn": "Kirkenes Skytterlag",
        "range_types": [
            "FELTANLEGG",
            "SKYTEANLEGG-UTE"
        ],
        "lat": 69.65333456990473,
        "long": 17.951284770213167
    },
    {
        "skytterlag_id": "10731",
        "skytterlag_navn": "Kirkesdalen Skytterlag",
        "range_types": [
            "SKYTEANLEGG-UTE"
        ],
        "lat": null,
        "long": null
    },
    {
        "skytterlag_id": "10601",
        "skytterlag_navn": "Kjerringøy Skytterlag",
        "range_types": [
            "SKYTEANLEGG-UTE"
        ],
        "lat": null,
        "long": null
    },
    {
        "skytterlag_id": "10459",
        "skytterlag_navn": "Kjøpsnes Skytterlag",
        "range_types": [
            "SKYTEANLEGG-INNE",
            "SKYTEANLEGG-UTE"
        ],
        "lat": null,
        "long": null
    },
    {
        "skytterlag_id": "10901",
        "skytterlag_navn": "Klara Skytterlag",
        "range_types": [
            "SKYTEANLEGG-UTE"
        ],
        "lat": null,
        "long": null
    },
    {
        "skytterlag_id": "10566",
        "skytterlag_navn": "Kleive Skytterlag",
        "range_types": [
            "SKYTEANLEGG-UTE",
            "SKYTEANLEGG-INNE"
        ],
        "lat": 62.80060660006621,
        "long": 7.70424368645323
    },
    {
        "skytterlag_id": "10536",
        "skytterlag_navn": "Klepp Skytterlag",
        "range_types": [
            "SKYTEANLEGG-UTE",
            "FELTANLEGG",
            "SKYTEANLEGG-INNE"
        ],
        "lat": 58.796428114423094,
        "long": 5.671193974555834
    },
    {
        "skytterlag_id": "10349",
        "skytterlag_navn": "Klinga Skytterlag",
        "range_types": [
            "SKYTEANLEGG-UTE"
        ],
        "lat": 64.3504535562946,
        "long": 11.54758173228145
    },
    {
        "skytterlag_id": "10612",
        "skytterlag_navn": "Knipenborg Skyttarlag",
        "range_types": [
            "SKYTEANLEGG-UTE",
            "SKYTEANLEGG-INNE"
        ],
        "lat": 61.25372234365903,
        "long": 7.740849202492706
    },
    {
        "skytterlag_id": "10350",
        "skytterlag_navn": "Kolvereid Skytterlag",
        "range_types": [
            "SKYTEANLEGG-UTE"
        ],
        "lat": 64.84938132802307,
        "long": 11.555189351425076
    },
    {
        "skytterlag_id": "10452",
        "skytterlag_navn": "Kongsberg Skytterlag",
        "range_types": [
            "SKYTEANLEGG-UTE",
            "SKYTEANLEGG-INNE"
        ],
        "lat": 59.59597833934426,
        "long": 9.663351697174235
    },
    {
        "skytterlag_id": "10645",
        "skytterlag_navn": "Kongsvinger og Omegn Skytterlag",
        "range_types": [
            "SKYTEANLEGG-INNE",
            "SKYTEANLEGG-UTE"
        ],
        "lat": 60.19148193138359,
        "long": 12.01511599077758
    },
    {
        "skytterlag_id": "10828",
        "skytterlag_navn": "Konsmo Skytterlag",
        "range_types": [
            "SKYTEANLEGG-INNE",
            "SKYTEANLEGG-UTE"
        ],
        "lat": 58.28631875541303,
        "long": 7.350930946127967
    },
    {
        "skytterlag_id": "10504",
        "skytterlag_navn": "Korgen Skytterlag",
        "range_types": [
            "SKYTEANLEGG-UTE"
        ],
        "lat": null,
        "long": null
    },
    {
        "skytterlag_id": "2301448",
        "skytterlag_navn": "Kristiansand og Omegn Skytterlag",
        "range_types": [
            "SKYTEANLEGG-UTE",
            "SKYTEANLEGG-INNE",
            "SKYTEANLEGG-INNE-ANDR",
            "SKYTEANLEGG-INNE-3"
        ],
        "lat": 58.23830165176577,
        "long": 8.065864813058846
    },
    {
        "skytterlag_id": "10407",
        "skytterlag_navn": "Kristiansund Skytterlag",
        "range_types": [
            "SKYTEANLEGG-UTE",
            "SKYTEANLEGG-INNE"
        ],
        "lat": 63.11237821981249,
        "long": 7.802493776352948
    },
    {
        "skytterlag_id": "10433",
        "skytterlag_navn": "Kronmo Skytterlag",
        "range_types": [
            "SKYTEANLEGG-UTE"
        ],
        "lat": 62.29008043053202,
        "long": 11.747283267192753
    },
    {
        "skytterlag_id": "10510",
        "skytterlag_navn": "Krødsherad Skytterlag",
        "range_types": [
            "SKYTEANLEGG-UTE"
        ],
        "lat": 60.10307381484271,
        "long": 9.801590792297846
    },
    {
        "skytterlag_id": "10142",
        "skytterlag_navn": "Kråkstad og Ski Skytterlag",
        "range_types": [
            "SKYTEANLEGG-UTE",
            "SKYTEANLEGG-INNE"
        ],
        "lat": 59.69148087190019,
        "long": 10.937290759099314
    },
    {
        "skytterlag_id": "10807",
        "skytterlag_navn": "Kvalfors Skytterlag",
        "range_types": [
            "SKYTEANLEGG-UTE"
        ],
        "lat": 65.80137728823844,
        "long": 13.190786484995575
    },
    {
        "skytterlag_id": "10316",
        "skytterlag_navn": "Kvam Skytterlag",
        "range_types": [
            "SKYTEANLEGG-INNE",
            "SKYTEANLEGG-UTE"
        ],
        "lat": 64.1386672033741,
        "long": 11.734096165349369
    },
    {
        "skytterlag_id": "10408",
        "skytterlag_navn": "Kvernes Skytterlag",
        "range_types": [
            "SKYTEANLEGG-INNE",
            "SKYTEANLEGG-UTE"
        ],
        "lat": 63.00637254610246,
        "long": 7.697864383512293
    },
    {
        "skytterlag_id": "10434",
        "skytterlag_navn": "Kvikne Skytterlag",
        "range_types": [
            "SKYTEANLEGG-INNE",
            "SKYTEANLEGG-UTE"
        ],
        "lat": 62.56080570471422,
        "long": 10.323880908803131
    },
    {
        "skytterlag_id": "10829",
        "skytterlag_navn": "Kvinesdal Skytterlag",
        "range_types": [
            "SKYTEANLEGG-INNE",
            "SKYTEANLEGG-UTE"
        ],
        "lat": 58.31378413089943,
        "long": 6.954959181009315
    },
    {
        "skytterlag_id": "346973",
        "skytterlag_navn": "Kvinnherad Skyttarlag",
        "range_types": [
            "SKYTEANLEGG-UTE",
            "SKYTEANLEGG-INNE"
        ],
        "lat": 59.87512411398379,
        "long": 6.03010548431603
    },
    {
        "skytterlag_id": "10887",
        "skytterlag_navn": "Kviteseid Skyttarlag",
        "range_types": [
            "SKYTEANLEGG-UTE"
        ],
        "lat": 59.36775456929359,
        "long": 8.513645004959248
    },
    {
        "skytterlag_id": "10468",
        "skytterlag_navn": "Kvæfjord Skytterlag",
        "range_types": [
            "SKYTEANLEGG-UTE"
        ],
        "lat": 68.7809646874137,
        "long": 16.206075288969274
    },
    {
        "skytterlag_id": "10753",
        "skytterlag_navn": "Kvænangen Skytterlag",
        "range_types": [
            "SKYTEANLEGG-UTE",
            "FELTANLEGG",
            "SKYTEANLEGG-INNE"
        ],
        "lat": 70.03309926105781,
        "long": 22.120099425556415
    },
    {
        "skytterlag_id": "10830",
        "skytterlag_navn": "Kvås Skytterlag",
        "range_types": [
            "SKYTEANLEGG-UTE",
            "SKYTEANLEGG-INNE"
        ],
        "lat": 58.21396419769476,
        "long": 7.133912316834527
    },
    {
        "skytterlag_id": "10732",
        "skytterlag_navn": "Kåfjord Skytterlag",
        "range_types": [
            "SKYTEANLEGG-UTE"
        ],
        "lat": null,
        "long": null
    },
    {
        "skytterlag_id": "10752",
        "skytterlag_navn": "Lakselvdal Skytterlag",
        "range_types": [
            "SKYTEANLEGG-UTE"
        ],
        "lat": 59.84430387618204,
        "long": 41.538307896611954
    },
    {
        "skytterlag_id": "10587",
        "skytterlag_navn": "Lakså Skytterlag",
        "range_types": [
            "SKYTEANLEGG-UTE",
            "SKYTEANLEGG-INNE"
        ],
        "lat": 67.81667425081976,
        "long": 15.269133471284652
    },
    {
        "skytterlag_id": "10695",
        "skytterlag_navn": "Langevåg Skyttarlag",
        "range_types": [
            "SKYTEANLEGG-UTE",
            "SKYTEANLEGG-INNE",
            "FELTANLEGG"
        ],
        "lat": 62.43274274178362,
        "long": 6.211141782283855
    },
    {
        "skytterlag_id": "10123",
        "skytterlag_navn": "Langfjorddalen Skytterlag",
        "range_types": [
            "SKYTEANLEGG-UTE",
            "SKYTEANLEGG-INNE"
        ],
        "lat": 69.50301683977351,
        "long": 30.014257070764504
    },
    {
        "skytterlag_id": "10087",
        "skytterlag_navn": "Langseth Skytterlag",
        "range_types": [
            "SKYTEANLEGG-UTE"
        ],
        "lat": 60.3843932445803,
        "long": 11.27461551794384
    },
    {
        "skytterlag_id": "10863",
        "skytterlag_navn": "Larvik Skytterlag",
        "range_types": [
            "SKYTEANLEGG-UTE"
        ],
        "lat": 59.01970382500978,
        "long": 9.886849965957742
    },
    {
        "skytterlag_id": "10831",
        "skytterlag_navn": "Laudal Skytterlag",
        "range_types": [
            "SKYTEANLEGG-UTE"
        ],
        "lat": 58.233425138244726,
        "long": 7.469936515341066
    },
    {
        "skytterlag_id": "10628",
        "skytterlag_navn": "Lavik Skyttarlag",
        "range_types": [
            "SKYTEANLEGG-UTE"
        ],
        "lat": 61.09971048154613,
        "long": 5.489358252046834
    },
    {
        "skytterlag_id": "10629",
        "skytterlag_navn": "Lavikdal Skyttarlag",
        "range_types": [
            "SKYTEANLEGG-UTE"
        ],
        "lat": 61.131499537909136,
        "long": 5.496960550729765
    },
    {
        "skytterlag_id": "10613",
        "skytterlag_navn": "Leikanger Skyttarlag",
        "range_types": [
            "SKYTEANLEGG-UTE",
            "SKYTEANLEGG-INNE"
        ],
        "lat": 61.18996782937343,
        "long": 6.867018441804026
    },
    {
        "skytterlag_id": "10088",
        "skytterlag_navn": "Leirsund Skytterlag",
        "range_types": [
            "SKYTEANLEGG-UTE"
        ],
        "lat": 59.99890158505842,
        "long": 11.103305264014287
    },
    {
        "skytterlag_id": "10351",
        "skytterlag_navn": "Leka Skytterlag",
        "range_types": [
            "SKYTEANLEGG-UTE"
        ],
        "lat": 58.20890834438321,
        "long": 26.40107377278596
    },
    {
        "skytterlag_id": "10317",
        "skytterlag_navn": "Leksvik Skytterlag",
        "range_types": [
            "SKYTEANLEGG-UTE",
            "SKYTEANLEGG-INNE"
        ],
        "lat": 63.745805493410856,
        "long": 10.621849906178369
    },
    {
        "skytterlag_id": "10209",
        "skytterlag_navn": "Lesja Skytterlag",
        "range_types": [
            "SKYTEANLEGG-INNE",
            "SKYTEANLEGG-UTE"
        ],
        "lat": 62.101013181268186,
        "long": 8.942052870852002
    },
    {
        "skytterlag_id": "10210",
        "skytterlag_navn": "Lesjaskog Skytterlag",
        "range_types": [
            "SKYTEANLEGG-INNE"
        ],
        "lat": null,
        "long": null
    },
    {
        "skytterlag_id": "10318",
        "skytterlag_navn": "Levanger og Frol Skytterlag",
        "range_types": [
            "SKYTEANLEGG-INNE",
            "SKYTEANLEGG-UTE"
        ],
        "lat": 63.741517714819814,
        "long": 11.284780586203913
    },
    {
        "skytterlag_id": "10182",
        "skytterlag_navn": "Levangsheia Skytterlag",
        "range_types": [
            "SKYTEANLEGG-UTE",
            "SKYTEANLEGG-INNE"
        ],
        "lat": 58.79683159094624,
        "long": 9.345978693144978
    },
    {
        "skytterlag_id": "10130",
        "skytterlag_navn": "Lier Skytterlag",
        "range_types": [
            "SKYTEANLEGG-UTE"
        ],
        "lat": 59.77484973976399,
        "long": 10.29788156204342
    },
    {
        "skytterlag_id": "10362",
        "skytterlag_navn": "Lierne Skytterlag",
        "range_types": [
            "SKYTEANLEGG-UTE"
        ],
        "lat": 64.353452754548,
        "long": 13.621777717739253
    },
    {
        "skytterlag_id": "10067",
        "skytterlag_navn": "Lillesand Skytterlag",
        "range_types": [
            "SKYTEANLEGG-UTE"
        ],
        "lat": 58.26757308064694,
        "long": 8.281562116792617
    },
    {
        "skytterlag_id": "10834",
        "skytterlag_navn": "Lindesnes Skytterlag",
        "range_types": [
            "SKYTEANLEGG-UTE",
            "SKYTEANLEGG-INNE"
        ],
        "lat": 58.117376911052055,
        "long": 7.398856413251486
    },
    {
        "skytterlag_id": "10288",
        "skytterlag_navn": "Lindås Skyttarlag",
        "range_types": [
            "SKYTEANLEGG-UTE",
            "SKYTEANLEGG-INNE"
        ],
        "lat": 60.73261285165467,
        "long": 5.175768725710643
    },
    {
        "skytterlag_id": "10289",
        "skytterlag_navn": "Lindåsneset Skytterlag",
        "range_types": [
            "SKYTEANLEGG-UTE"
        ],
        "lat": 60.784467598902395,
        "long": 5.04846958707869
    },
    {
        "skytterlag_id": "10263",
        "skytterlag_navn": "Lismarken Skytterlag",
        "range_types": [
            "SKYTEANLEGG-UTE",
            "SKYTEANLEGG-INNE"
        ],
        "lat": 61.06818740181733,
        "long": 10.636839716831844
    },
    {
        "skytterlag_id": "10218",
        "skytterlag_navn": "Lom og Skjåk Skytterlag",
        "range_types": [
            "SKYTEANLEGG-UTE"
        ],
        "lat": 61.895477967880595,
        "long": 8.223597026923954
    },
    {
        "skytterlag_id": "10409",
        "skytterlag_navn": "Lomundal Skytterlag",
        "range_types": [
            "SKYTEANLEGG-UTE"
        ],
        "lat": 63.14197914649111,
        "long": 9.375499128247847
    },
    {
        "skytterlag_id": "10435",
        "skytterlag_navn": "Lonås Skytterlag",
        "range_types": [
            "SKYTEANLEGG-UTE"
        ],
        "lat": 62.36508810173325,
        "long": 10.580759885074034
    },
    {
        "skytterlag_id": "10212",
        "skytterlag_navn": "Lora Skytterlag",
        "range_types": [
            "SKYTEANLEGG-UTE"
        ],
        "lat": null,
        "long": null
    },
    {
        "skytterlag_id": "10538",
        "skytterlag_navn": "Lund Skytterlag",
        "range_types": [
            "SKYTEANLEGG-UTE"
        ],
        "lat": 58.466892545335824,
        "long": 6.5389324144225505
    },
    {
        "skytterlag_id": "10183",
        "skytterlag_navn": "Lunde Skytterlag",
        "range_types": [
            "SKYTEANLEGG-UTE",
            "SKYTEANLEGG-INNE"
        ],
        "lat": 59.271530307193004,
        "long": 9.112900802230332
    },
    {
        "skytterlag_id": "10477",
        "skytterlag_navn": "Lunner Skytterlag",
        "range_types": [
            "SKYTEANLEGG-INNE"
        ],
        "lat": 60.291664408092856,
        "long": 10.61589771064358
    },
    {
        "skytterlag_id": "10832",
        "skytterlag_navn": "Lyngdal Skytterlag",
        "range_types": [
            "SKYTEANLEGG-UTE",
            "SKYTEANLEGG-INNE"
        ],
        "lat": 58.16373835345612,
        "long": 7.09600052251878
    },
    {
        "skytterlag_id": "10750",
        "skytterlag_navn": "Lyngen Skytterlag",
        "range_types": [
            "SKYTEANLEGG-UTE",
            "SKYTEANLEGG-INNE"
        ],
        "lat": -571.8746916683302,
        "long": 1969.1519426449422
    },
    {
        "skytterlag_id": "10552",
        "skytterlag_navn": "Lysebotn Skytterlag",
        "range_types": [
            "SKYTEANLEGG-UTE"
        ],
        "lat": 59.06021361052384,
        "long": 6.685566988139749
    },
    {
        "skytterlag_id": "10157",
        "skytterlag_navn": "Lysøysund Skytterlag",
        "range_types": [
            "SKYTEANLEGG-UTE"
        ],
        "lat": 63.87409712156829,
        "long": 9.850401837183227
    },
    {
        "skytterlag_id": "10618",
        "skytterlag_navn": "Lærdal Skytterlag",
        "range_types": [
            "SKYTEANLEGG-UTE",
            "SKYTEANLEGG-INNE"
        ],
        "lat": 60.98072931080635,
        "long": 7.695529478430851
    },
    {
        "skytterlag_id": "10460",
        "skytterlag_navn": "Lødingen Skytterlag",
        "range_types": [
            "SKYTEANLEGG-UTE"
        ],
        "lat": 68.3970324020928,
        "long": 15.908334001251347
    },
    {
        "skytterlag_id": "10264",
        "skytterlag_navn": "Løiten Skytterlag",
        "range_types": [
            "SKYTEANLEGG-UTE",
            "SKYTEANLEGG-INNE"
        ],
        "lat": 60.79302985316223,
        "long": 11.391026859276987
    },
    {
        "skytterlag_id": "10770",
        "skytterlag_navn": "Løkken Skytterlag",
        "range_types": [
            "SKYTEANLEGG-UTE"
        ],
        "lat": 63.12770930748649,
        "long": 9.653469763159158
    },
    {
        "skytterlag_id": "10169",
        "skytterlag_navn": "Lønset Skytterlag",
        "range_types": [
            "SKYTEANLEGG-UTE"
        ],
        "lat": 62.58575214387899,
        "long": 9.313498082285252
    },
    {
        "skytterlag_id": "10902",
        "skytterlag_navn": "Løra Skytterlag",
        "range_types": [
            "SKYTEANLEGG-UTE"
        ],
        "lat": null,
        "long": null
    },
    {
        "skytterlag_id": "10089",
        "skytterlag_navn": "Lørenskog Skytterlag",
        "range_types": [
            "SKYTEANLEGG-UTE"
        ],
        "lat": 59.89185320296871,
        "long": 10.971966154333792
    },
    {
        "skytterlag_id": "10184",
        "skytterlag_navn": "Løveid Skytterlag",
        "range_types": [
            "SKYTEANLEGG-UTE",
            "SKYTEANLEGG-INNE"
        ],
        "lat": 59.22422417676564,
        "long": 9.505598044589531
    },
    {
        "skytterlag_id": "10771",
        "skytterlag_navn": "Lånke Skytterlag",
        "range_types": [
            "SKYTEANLEGG-INNE",
            "SKYTEANLEGG-UTE"
        ],
        "lat": 63.44253736703615,
        "long": 10.939706003702579
    },
    {
        "skytterlag_id": "10319",
        "skytterlag_navn": "Malm Skytterlag",
        "range_types": [
            "SKYTEANLEGG-UTE",
            "SKYTEANLEGG-INNE"
        ],
        "lat": 64.07288659706035,
        "long": 11.194580419217509
    },
    {
        "skytterlag_id": "10567",
        "skytterlag_navn": "Malmefjorden Skytterlag",
        "range_types": [
            "SKYTEANLEGG-INNE",
            "SKYTEANLEGG-UTE"
        ],
        "lat": 62.79974927443299,
        "long": 7.23083728885086
    },
    {
        "skytterlag_id": "10772",
        "skytterlag_navn": "Malvik Skytterlag",
        "range_types": [
            "SKYTEANLEGG-INNE",
            "SKYTEANLEGG-UTE"
        ],
        "lat": 63.41043174715103,
        "long": 10.7938592129426
    },
    {
        "skytterlag_id": "10833",
        "skytterlag_navn": "Mandal Skytterlag",
        "range_types": [
            "SKYTEANLEGG-UTE",
            "SKYTEANLEGG-INNE"
        ],
        "lat": 58.095581382385106,
        "long": 7.627162624019817
    },
    {
        "skytterlag_id": "10333",
        "skytterlag_navn": "Markabygda Skytterlag",
        "range_types": [
            "SKYTEANLEGG-UTE",
            "SKYTEANLEGG-INNE"
        ],
        "lat": 63.6122512525964,
        "long": 11.339867013537127
    },
    {
        "skytterlag_id": "10855",
        "skytterlag_navn": "Masi Skytterlag",
        "range_types": [
            "SKYTEANLEGG-UTE"
        ],
        "lat": 69.42091220649898,
        "long": 23.612070315422343
    },
    {
        "skytterlag_id": "10352",
        "skytterlag_navn": "Meihatten Skytterlag",
        "range_types": [
            "SKYTEANLEGG-UTE"
        ],
        "lat": null,
        "long": null
    },
    {
        "skytterlag_id": "10410",
        "skytterlag_navn": "Meisingset Skytterlag",
        "range_types": [
            "SKYTEANLEGG-UTE"
        ],
        "lat": 62.85521572765793,
        "long": 8.218122715522686
    },
    {
        "skytterlag_id": "10292",
        "skytterlag_navn": "Meland Skyttarlag",
        "range_types": [
            "SKYTEANLEGG-INNE",
            "SKYTEANLEGG-UTE"
        ],
        "lat": 6087.988848390105,
        "long": -28.60298049517761
    },
    {
        "skytterlag_id": "10843",
        "skytterlag_navn": "Melbo Skytterlag",
        "range_types": [
            "SKYTEANLEGG-UTE"
        ],
        "lat": 68.50703977882193,
        "long": 14.79808399233124
    },
    {
        "skytterlag_id": "10170",
        "skytterlag_navn": "Meldal Skytterlag",
        "range_types": [
            "SKYTEANLEGG-UTE",
            "SKYTEANLEGG-INNE"
        ],
        "lat": 63.011204951551306,
        "long": 9.744396538990678
    },
    {
        "skytterlag_id": "10589",
        "skytterlag_navn": "Meløy Skytterlag",
        "range_types": [
            "SKYTEANLEGG-UTE"
        ],
        "lat": null,
        "long": null
    },
    {
        "skytterlag_id": "10773",
        "skytterlag_navn": "Meråker Skytterlag",
        "range_types": [
            "SKYTEANLEGG-UTE"
        ],
        "lat": 63.421839413762854,
        "long": 11.699504101358102
    },
    {
        "skytterlag_id": "10090",
        "skytterlag_navn": "Minne Skytterlag",
        "range_types": [
            "SKYTEANLEGG-UTE"
        ],
        "lat": 60.41582226889785,
        "long": 11.178151571762408
    },
    {
        "skytterlag_id": "10353",
        "skytterlag_navn": "Mo og Salsnes Skytterlag",
        "range_types": [
            "SKYTEANLEGG-UTE"
        ],
        "lat": 64.67270255821545,
        "long": 11.452934930299838
    },
    {
        "skytterlag_id": "10505",
        "skytterlag_navn": "Mo Skytterlag",
        "range_types": [
            "SKYTEANLEGG-INNE"
        ],
        "lat": 66.3042856351066,
        "long": 14.345003008698535
    },
    {
        "skytterlag_id": "10568",
        "skytterlag_navn": "Molde Skytterlag",
        "range_types": [
            "SKYTEANLEGG-UTE"
        ],
        "lat": 62.779703258928265,
        "long": 7.313212144680694
    },
    {
        "skytterlag_id": "10718",
        "skytterlag_navn": "Moltustranda og Larsnes Skyttarlag",
        "range_types": [
            "SKYTEANLEGG-INNE",
            "SKYTEANLEGG-UTE"
        ],
        "lat": 62.23035392654972,
        "long": 5.731116987485137
    },
    {
        "skytterlag_id": "10808",
        "skytterlag_navn": "Mosjøen Skytterlag",
        "range_types": [
            "SKYTEANLEGG-INNE",
            "SKYTEANLEGG-UTE"
        ],
        "lat": 65.83228895189701,
        "long": 13.226297048274123
    },
    {
        "skytterlag_id": "10141",
        "skytterlag_navn": "Moss og Våler Skytterlag",
        "range_types": [
            "SKYTEANLEGG-UTE",
            "SKYTEANLEGG-INNE"
        ],
        "lat": 59.461808110936744,
        "long": 10.861449428126347
    },